stop_id,stop_code,stop_name,stop_desc,stop_lat,stop_lon,location_type,parent_station,wheelchair_boarding,platform_code,in_midt,in_cph
8600710,,Veksø St.,,55.750211356376,12.238431493808,0,,0,,False,True
8600646,,Nørreport St.,,55.683451957752,12.571804282859,0,,0,,False,True
8600644,,Ryparken St.,,55.715361927801,12.559491548475,0,,0,,False,True
8600645,,Vesterport St.,,55.676010693418,12.56208717275,0,,0,,False,True
8600642,,Nørrebro St.,,55.700847274611,12.537805923189,0,,0,,False,True
8600640,,Fuglebakken St.,,55.695428824296,12.527381832118,0,,0,,False,True
8600641,,Grøndal St.,,55.690738121419,12.516007354717,0,,0,,False,True
8603317,,Vestamager St. (Metro),,55.619391330793,12.575297436662,0,,0,,False,True
8603315,,Ørestad St. (Metro),,55.629055015949,12.579388751037,0,,0,,False,True
8603312,,Sundby St. (Metro),,55.645198908236,12.58572819334,0,,0,,False,True
8603313,,Bella Center St. (Metro),,55.63805133513,12.582928389951,0,,0,,False,True
8603310,,Islands Brygge St. (Metro),,55.663422372255,12.585216893318,0,,0,,False,True
8603311,,DR Byen St. (Metro),,55.655812763991,12.588989675279,0,,0,,False,True
8600768,,Ishøj St.,,55.613384852013,12.357933600396,0,,0,,False,True
8600769,,Hundige St.,,55.597448651303,12.333387379707,0,,0,,False,True
8600766,,Brøndby Strand St.,,55.62093581961,12.422659795591,0,,0,,False,True
8600767,,Vallensbæk St.,,55.623253400623,12.388444319921,0,,0,,False,True
8600764,,Friheden St.,,55.628887082785,12.482553214688,0,,0,,False,True
8600765,,Avedøre St.,,55.625183281712,12.454256040641,0,,0,,False,True
8600763,,Åmarken St.,,55.640078665243,12.499698874585,0,,0,,False,True
8600760,,Sydhavn St.,,55.654756253687,12.537174031605,0,,0,,False,True
8600761,,Sjælør St.,,55.651741843604,12.527265160493,0,,0,,False,True
8600708,,Ballerup St.,,55.729870651835,12.358344080252,0,,0,,False,True
8600709,,Måløv St.,,55.747484584436,12.318318647453,0,,0,,False,True
8600706,,Herlev St.,,55.718919140595,12.443673817285,0,,0,,False,True
8600707,,Skovlunde St.,,55.722763473379,12.403533000815,0,,0,,False,True
8600704,,Islev St.,,55.699528733695,12.469383193909,0,,0,,False,True
8600705,,Husum St.,,55.709408619583,12.464032836576,0,,0,,False,True
8600702,,Peter Bangs Vej St.,,55.678590447452,12.503442999466,0,,0,,False,True
8600703,,Vanløse St.,,55.687354674935,12.490602915812,0,,0,,False,True
8600781,,Kildebakke St.,,55.744613542037,12.508534609754,0,,0,,False,True
8600701,,Langgade St.,,55.667049948656,12.504224213519,0,,0,,False,True
8600780,,Dyssegård St.,,55.732629190064,12.535743284099,0,,0,,False,True
8600636,,Sorgenfri St.,,55.781255032081,12.483542221086,0,,0,,False,True
8600634,,Dybbølsbro St.,,55.66482783277,12.559511164526,0,,0,,False,True
8600061,,Skanderborg St.,,56.043372620678,9.925358571738,0,,0,,True,False
8603308,,Kongens Nytorv St. (Metro),,55.679184740345,12.585228066864,0,,0,,False,True
8603309,,Christianshavn St. (Metro),,55.672053856355,12.591385016884,0,,0,,False,True
8603306,,Forum St. (Metro),,55.681820753438,12.552430464682,0,,0,,False,True
8603307,,Nørreport St. (Metro),,55.683842758555,12.571044165371,0,,0,,False,True
8603304,,Fasanvej St. (Metro),,55.681668795871,12.523102168664,0,,0,,False,True
8603305,,Frederiksberg St. (Metro),,55.681223102593,12.531719409916,0,,0,,False,True
8603302,,Flintholm St. (Metro),,55.685868525465,12.499526547929,0,,0,,False,True
8603303,,Lindevang St. (Metro),,55.683481833371,12.512872782245,0,,0,,False,True
8603301,,Vanløse St. (Metro),,55.687297488896,12.491664221017,0,,0,,False,True
8600756,,Malmparken St.,,55.724632379216,12.386028121189,0,,0,,False,True
8600955,,Kildedal St.,,55.751951524781,12.286623476909,0,,0,,False,True
8600626,,København H,,55.673059428552,12.565557817097,0,,0,,False,True
8600624,,Valby St.,,55.663996839913,12.514449793547,0,,0,,False,True
8600622,,Glostrup St.,,55.6631483473,12.397827035992,0,,0,,False,True
8600620,,Taastrup St.,,55.652546204053,12.302134797797,0,,0,,False,True
8600621,,Albertslund St.,,55.658040350885,12.353123542711,0,,0,,False,True
8600059,,Hørning St.,,56.082050011867,10.037787278292,0,,0,,True,False
8600054,,Viby Jylland St.,,56.122349465108,10.160947821709,0,,0,,True,False
8600053,,Aarhus H,,56.15044092529,10.204759714423,0,,0,,True,False
8600678,,Birkerød St.,,55.840508366713,12.424018073057,0,,0,,False,True
8600679,,Brøndbyøster St.,,55.665068424325,12.440210794752,0,,0,,False,True
8600676,,Virum St.,,55.795606212655,12.473348939065,0,,0,,False,True
8600677,,Holte St.,,55.807674633159,12.468820812634,0,,0,,False,True
8600674,,Jægersborg St.,,55.761621113789,12.52156115354,0,,0,,False,True
8600675,,Lyngby St.,,55.768083639427,12.50310056253,0,,0,,False,True
8600672,,Bernstorffsvej St.,,55.743051500471,12.557487945306,0,,0,,False,True
8600673,,Gentofte St.,,55.753509100082,12.541620052182,0,,0,,False,True
8603013,,Ørholm St.,,55.799584131001,12.508964336238,0,,0,,False,True
8603011,,Ravnholm St.,,55.802084626583,12.519932958126,0,,0,,False,True
8600619,,Hedehusene St.,,55.64898628709,12.197311704183,0,,0,,False,True
8600696,,Farum St.,,55.812027443634,12.373533850732,0,,0,,False,True
8600695,,Værløse St.,,55.782034021168,12.373188657059,0,,0,,False,True
8600694,,Hareskov St.,,55.766022534905,12.406028983553,0,,0,,False,True
8600693,,Skovbrynet St.,,55.765172623635,12.43202951903,0,,0,,False,True
8600692,,Bagsværd St.,,55.761871657518,12.453554242659,0,,0,,False,True
8600691,,Stengården St.,,55.756534369979,12.473188160005,0,,0,,False,True
8600690,,Buddinge St.,,55.747382844304,12.494037931574,0,,0,,False,True
8600048,,Hinnerup St.,,56.263084723333,10.060070188611,0,,0,,True,False
8600047,,Hadsten St.,,56.327500246928,10.047235431376,0,,0,,True,False
8600739,,Bispebjerg St.,,55.706347661736,12.541631707268,0,,0,,False,True
8600736,,Flintholm St.,,55.685434678459,12.498660137073,0,,0,,False,True
8600734,,Jyllingevej St.,,55.690810321608,12.477205847386,0,,0,,False,True
8600662,,Vedbæk St.,,55.852903753136,12.563021639091,0,,0,,False,True
8600663,,Rungsted Kyst St.,,55.882227109192,12.53147749564,0,,0,,False,True
8600661,,Skodsborg St.,,55.823530870606,12.571290532415,0,,0,,False,True
8603009,,Nærum St.,,55.813928682676,12.528316757226,0,,0,,False,True
8603007,,Lyngby Lokal St.,,55.773904858742,12.505489658493,0,,0,,False,True
8603003,,Fuglevad St.,,55.784448635382,12.497087081502,0,,0,,False,True
8603001,,Brede St.,,55.793803677915,12.500735257071,0,,0,,False,True
8600689,,Vangede St.,,55.73965761395,12.523342114334,0,,0,,False,True
8600688,,Emdrup St.,,55.720887447097,12.540686879685,0,,0,,False,True
8600600,,Hvidovre St.,,55.664510478176,12.474345981619,0,,0,,False,True
8600680,,Rødovre St.,,55.664819641675,12.458641179704,0,,0,,False,True
8600658,,Ordrup St.,,55.763070336454,12.583649167866,0,,0,,False,True
8600659,,Klampenborg St.,,55.777445859018,12.587729917454,0,,0,,False,True
8600657,,Charlottenlund St.,,55.751851288621,12.572144474528,0,,0,,False,True
8600654,,Svanemøllen St.,,55.715550412042,12.578049483066,0,,0,,False,True
8600655,,Hellerup St.,,55.731022077714,12.567658479376,0,,0,,False,True
8600653,,Nordhavn St.,,55.705616051687,12.59061270481,0,,0,,False,True
8600650,,Østerport St.,,55.692498791312,12.587785127349,0,,0,,False,True
8600858,,CPH Lufthavn,,55.629442640199,12.649165939903,0,,0,,False,True
8600856,,Ørestad St.,,55.62843449593,12.578775863595,0,,0,,False,True
8600857,,Tårnby St.,,55.629855325049,12.602094527522,0,,0,,False,True
8603322,,Lergravsparken St. (Metro),,55.662101302701,12.616416741816,0,,0,,False,True
8603321,,Amagerbro St. (Metro),,55.663325717228,12.602928881164,0,,0,,False,True
8600770,,Greve St.,,55.581217463338,12.295599212601,0,,0,,False,True
8600771,,Karlslunde St.,,55.56629017553,12.268851082132,0,,0,,False,True
8600798,,Høje Taastrup St.,,55.648869371621,12.269580583877,0,,0,,False,True
751400302,,Østergårdsvej/Solbjerg Hovedgade (Aarhus Kom),,56.038141368581,10.082401324954,0,,0,,True,False
751300901,,Harald Jensens Plads/Skanderborgvej (Aarhus Kom),,56.143573768436,10.188288982445,0,,0,,True,False
745000102,,Gadebakken/Virringvej (Skanderborg Kom),,56.032372380481,10.03318004958,0,,0,,True,False
745100302,,Svinsager/Gl. Horsensvej (Skanderborg Kom),,56.014804941057,10.03649670648,0,,0,,True,False
745100301,,Svinsager/Gl. Horsensvej (Skanderborg Kom),,56.016649195002,10.037300065364,0,,0,,True,False
751300902,,Harald Jensens Plads/Skanderborgvej (Aarhus Kom),,56.144086875098,10.190059185917,0,,0,,True,False
751101001,,Tranbjerg Stationsvej/Tranbjerg Hovedgade (Aarhus),,56.095390170422,10.136136914601,0,,0,,True,False
751101002,,Tranbjerg Stationsvej/Tranbjerg Hovedgade (Aarhus),,56.096147960261,10.136786155404,0,,0,,True,False
745000101,,Gadebakken/Virringvej (Skanderborg Kom),,56.032850920794,10.032903960148,0,,0,,True,False
8600742,,Danshøj St.,,55.66427428919,12.493731681053,0,,0,,False,True
8600740,,KB Hallen St.,,55.677963407988,12.492327534057,0,,0,,False,True
8600741,,Ålholm St.,,55.672330307797,12.493113898916,0,,0,,False,True
8600783,,Ny Ellebjerg St.,,55.652625588291,12.516848994787,0,,0,,False,True
8600804,,Vigerslev Alle St.,,55.659898001629,12.498685625824,0,,0,,False,True
8603323,,Øresund St. (Metro),,55.661700666101,12.628453101001,0,,0,,False,True
8603324,,Amager Strand St. (Metro),,55.65651848373,12.631583562741,0,,0,,False,True
8603326,,Femøren St. (Metro),,55.64534830186,12.638323824276,0,,0,,False,True
8603327,,Kastrup St. (Metro),,55.635746618338,12.646732274924,0,,0,,False,True
8603328,,Lufthavnen St. (Metro),,55.630137365617,12.649389525367,0,,0,,False,True
701000102,,Egens (Syddjurs Kom),,56.269454831783,10.516056259128,0,,0,,True,False
701000201,,Femmøller (Syddjurs Kom),,56.239585123222,10.576531904402,0,,0,,True,False
701000202,,Femmøller (Syddjurs Kom),,56.239695421217,10.57563280691,0,,0,,True,False
701000301,,Grønfeld (Syddjurs Kom),,56.252785149017,10.55166744677,0,,0,,True,False
701300201,,Vrinners (Syddjurs Kom),,56.243869831693,10.493355841314,0,,0,,True,False
701300202,,Vrinners (Syddjurs Kom),,56.244019986831,10.493571478021,0,,0,,True,False
703000401,,Galten/Silkeborgvej (Skanderborg Kom),,56.148324507106,9.899227453752,0,,0,,True,False
703000501,,Engvej/Langelinie (Skanderborg Kom),,56.183891909536,9.969982028112,0,,0,,True,False
703000701,,Hørslevvej/Smedeskovvej (Skanderborg Kom),,56.158395220693,9.942853839732,0,,0,,True,False
703000702,,Hørslevvej/Smedeskovvej (Skanderborg Kom),,56.158152789111,9.942831801116,0,,0,,True,False
703001201,,Klintevej/Frichsvej (Skanderborg Kom),,56.156853150902,9.913691211761,0,,0,,True,False
703001202,,Klintevej/Frichsvej (Skanderborg Kom),,56.156751475088,9.914075196342,0,,0,,True,False
703001501,,Stjær/Østerbro (Skanderborg Kom),,56.117087287849,9.954935263904,0,,0,,True,False
703002001,,Storring/Kirkebakken (Skanderborg Kom),,56.136506779958,9.940564105796,0,,0,,True,False
709000203,,Ødum/Landevejen (Favrskov Kom),,56.312137701918,10.134755644491,0,,0,,True,False
709000501,,Hadsten/Kirkevej,,56.329445785632,10.045606735936,0,,0,,True,False
709000502,,Hadsten/Kirkevej,,56.329411627392,10.045395556022,0,,0,,True,False
709000701,,Hadsten St./Østergade,,56.327403718645,10.048025212662,0,,0,,True,False
709000702,,Hadsten St./Østergade,,56.327297427318,10.047844409423,0,,0,,True,False
709000801,,Nørre Galten Kirke (Favrskov Kom),,56.34869826542,10.046958661669,0,,0,,True,False
709001202,,Sundhedscenter Hadsten,,56.331632957573,10.058912817774,0,,0,,True,False
709100101,,Hadbjerg Kirke (Favrskov Kom),,56.329740102562,10.108899626762,0,,0,,True,False
709100301,,Lerbjerg/Hadstenvej (Favrskov Kom),,56.349558100409,9.990444952782,0,,0,,True,False
709200301,,Voldum Kirke (Favrskov Kom),,56.364108934341,10.171329457999,0,,0,,True,False
711000301,,Hammel Rtb.,,56.256684279234,9.862638904816,0,,0,,True,False
711100101,,Voldby Forsamlingshus (Favrskov Kom),,56.235642464196,9.884138961066,0,,0,,True,False
711100102,,Voldby Forsamlingshus (Favrskov Kom),,56.235521412526,9.884733089463,0,,0,,True,False
711100301,,Lading/Møllebakken (Favrskov Kom),,56.222215032775,9.972078765649,0,,0,,True,False
711300101,,Farre/Sporup Kirkevej (Favrskov Kom),,56.219325484577,9.845609044701,0,,0,,True,False
713000101,,Søften/Engen,,56.237121251718,10.08760339077,0,,0,,True,False
713000102,,Søften/Engen,,56.236941450386,10.087614429169,0,,0,,True,False
713000301,,Alfa/Århusvej (Favrskov Kom),,56.232649301948,10.102527899586,0,,0,,True,False
713000802,,Rønvangen/Ådalsvej (Favrskov Kom),,56.255812968766,10.070829429762,0,,0,,True,False
713000901,,Lisbjerg Erhvervspark/Søftenvej (Aarhus Kom),,56.215713429269,10.138097224637,0,,0,,True,False
713001101,,Bjergegårdsvej/Rylevej (Favrskov Kom),,56.278801597007,10.064042129542,0,,0,,True,False
713001102,,Bjergegårdsvej/Rylevej (Favrskov Kom),,56.279099423166,10.063888884423,0,,0,,True,False
713001401,,Nørregade/Rylevej (Favrskov Kom),,56.27078775682,10.064982308095,0,,0,,True,False
713002001,,Foldby/Korsholm Skole (Favrskov Kom),,56.2498038396,10.030378237055,0,,0,,True,False
713002501,,Norring/Riisvej (Favrskov Kom),,56.247390428041,10.041755366261,0,,0,,True,False
713003101,,Hinnerup St./Ådalsvej,,56.263542989321,10.061116139537,0,,0,,True,False
713003102,,Hinnerup St./Ådalsvej,,56.263190558848,10.062397973854,0,,0,,True,False
713101102,,Haldum Kirke (Favrskov Kom),,56.280049193733,10.042013223969,0,,0,,True,False
713200902,,Kildevangen/Nørregade (Favrskov Kom),,56.275556591082,10.071494113194,0,,0,,True,False
715000201,,Hårby Bygade/Ryvejen (Skanderborg Kom),,56.087454683707,9.905940715507,0,,0,,True,False
715000202,,Hårby Bygade/Ryvejen (Skanderborg Kom),,56.087364375192,9.906002879565,0,,0,,True,False
715000501,,Nørre Allé/Århusvej (Skanderborg Kom),,56.084081792779,10.036588457207,0,,0,,True,False
715000502,,Nørre Allé/Århusvej (Skanderborg Kom),,56.084439312248,10.037883654666,0,,0,,True,False
715100101,,Veng/Låsbyvej (Skanderborg Kom),,56.110267117723,9.881246307875,0,,0,,True,False
727000402,,Rudevej/Strandvejen (Odder Kom),,55.974560066089,10.231705112563,0,,0,,True,False
727000601,,Saksild Skole (Odder Kom),,55.987061494109,10.230579701832,0,,0,,True,False
727000602,,Saksild Skole (Odder Kom),,55.987185495007,10.230759970544,0,,0,,True,False
727000701,,Odder Busterminal,,55.971459047389,10.149951344062,0,,0,,True,False
727001001,,Rørth (Odder Kom),,55.975606338989,10.195713798508,0,,0,,True,False
727001602,,Hesselbjergvej/Houvej (Odder Kom),,55.941436501505,10.211056063709,0,,0,,True,False
727002001,,Norsminde/Norsmindevej (Odder Kom),,56.022771820111,10.260724247919,0,,0,,True,False
727002501,,Rude Strand Højskole (Odder Kom),,55.991862549496,10.250852322761,0,,0,,True,False
727003801,,Saksild Strand/Samsøvej (Odder Kom),,55.985303953569,10.250752770572,0,,0,,True,False
727003802,,Saksild Strand/Samsøvej (Odder Kom),,55.985517265193,10.250984067811,0,,0,,True,False
727004001,,Kragebækvej/Århusvej (Odder Kom),,55.999221756644,10.165575787984,0,,0,,True,False
727004002,,Kragebækvej/Århusvej (Odder Kom),,56.000502433335,10.166977343418,0,,0,,True,False
727019601,,Nørregade/Rådhusgade (Odder Kom),,55.975250095731,10.150047794516,0,,0,,True,False
727019602,,Nørregade/Rådhusgade (Odder Kom),,55.975246807077,10.150400244216,0,,0,,True,False
727100401,,Neder Randlev/Houvej (Odder),,55.956760730256,10.190407633137,0,,0,,True,False
727200101,,Torrild (Odder Kom),,55.979925775203,10.053160833924,0,,0,,True,False
733000102,,Hornslet Rtb. (Syddjurs Kom),,56.321940034498,10.30114446771,0,,0,,True,False
733000202,,Rosenholm (Syddjurs Kom),,56.333039444759,10.333030877132,0,,0,,True,False
733000301,,Rodskov (Syddjurs Kom),,56.300000289025,10.364363907343,0,,0,,True,False
733000302,,Rodskov (Syddjurs Kom),,56.30010425097,10.363898940132,0,,0,,True,False
733000501,,Hornbjergvej/Løgtenvej (Syddjurs Kom),,56.305773099402,10.31666122421,0,,0,,True,False
733000502,,Hornbjergvej/Løgtenvej (Syddjurs Kom),,56.304774881254,10.316740027934,0,,0,,True,False
733000601,,Lime (Syddjurs Kom),,56.385571121213,10.244534117224,0,,0,,True,False
733000701,,Hornslet/Birkevej (Syddjurs Kom),,56.319414284698,10.319911772727,0,,0,,True,False
733000801,,Skørring (Syddjurs Kom),,56.364290164313,10.274986280227,0,,0,,True,False
733000802,,Skørring (Syddjurs Kom),,56.364314780485,10.275213734791,0,,0,,True,False
733001001,,Mørke (Syddjurs Kom),,56.336468109425,10.376115100265,0,,0,,True,False
733001002,,Mørke (Syddjurs Kom),,56.33664074005,10.37594337171,0,,0,,True,False
733001101,,Søby (Syddjurs Kom),,56.352132622084,10.238703192954,0,,0,,True,False
733001102,,Søby (Syddjurs Kom),,56.352185869305,10.23876965049,0,,0,,True,False
733001401,,Brovej/Brogårdsvej (Syddjurs Kom),,56.314881597726,10.319448230091,0,,0,,True,False
733001402,,Brovej/Brogårdsvej (Syddjurs Kom),,56.314796110106,10.319881796674,0,,0,,True,False
733100101,,Halling (Syddjurs Kom),,56.335558545729,10.191596226858,0,,0,,True,False
733100901,,Karlby (Syddjurs Kom),,56.351182333838,10.28526168491,0,,0,,True,False
733100902,,Karlby (Syddjurs Kom),,56.351369952795,10.285365091394,0,,0,,True,False
733101001,,Skader (Syddjurs Kom),,56.354815484417,10.211811596654,0,,0,,True,False
737000501,,Illerupvej/Skanderborgvej (Skanderborg Kom),,56.054891414704,9.865981081037,0,,0,,True,False
737300101,,Låsby idrætsanlæg/Århusvej (Skanderborg Kom),,56.148726756812,9.81260570165,0,,0,,True,False
737300102,,Låsby idrætsanlæg/Århusvej (Skanderborg Kom),,56.148600983296,9.812603047574,0,,0,,True,False
739000101,,Rønde Busterminal (Syddjurs Kom),,56.300753451816,10.47803868308,0,,0,,True,False
739000102,,Rønde Busterminal (Syddjurs Kom),,56.30069115962,10.477987792983,0,,0,,True,False
739000103,,Rønde Busterminal (Syddjurs Kom),,56.300756648308,10.478523657332,0,,0,,True,False
739000601,,Århusvej/Randersvej (Syddjurs Kom),,56.308100138763,10.445604949962,0,,0,,True,False
739001001,,Ugelbølle (Syddjurs Kom),,56.304918298993,10.413772344194,0,,0,,True,False
739200201,,Kalø Slotsruin (Syddjurs Kom),,56.283467252246,10.480860982156,0,,0,,True,False
739200202,,Kalø Slotsruin (Syddjurs Kom),,56.283621096965,10.480770002764,0,,0,,True,False
745000601,,Skanderborg St. (Skanderborg Kom),,56.043204096315,9.925065591159,0,,0,,True,False
745000602,,Skanderborg St. (Skanderborg Kom),,56.042884171131,9.924592414495,0,,0,,True,False
745000603,,Skanderborg St. (Skanderborg Kom),,56.043129977565,9.924164873394,0,,0,,True,False
745000604,,Skanderborg St. (Skanderborg Kom),,56.042325288752,9.92363196689,0,,0,,True,False
745001001,,Illerupvej/Låsbyvej (Skanderborg Kom),,56.065321908647,9.898852325167,0,,0,,True,False
745001201,,Kristiansvej/Låsbyvej (Skanderborg Kom),,56.044417324927,9.920230529866,0,,0,,True,False
745001901,,Hotel Skanderborghus (Skanderborg Kom),,56.025925990087,9.929754849393,0,,0,,True,False
745001902,,Hotel Skanderborghus (Skanderborg Kom),,56.025671142331,9.928994593743,0,,0,,True,False
745011201,,Søtoften/Vestergade (Skanderborg Kom),,56.032239150522,9.931415122128,0,,0,,True,False
745101001,,Gammel Horsensvej/Torrildvej (Skanderborg Kom),,55.987649664843,10.022641698218,0,,0,,True,False
745200311,,Sønderbækparken/Vestermøllevej (Skanderborg Kom),,56.034178964135,9.981390017113,0,,0,,True,False
751000101,,Aarhus Rutebilstation,,56.151999302745,10.208961891948,0,,0,,True,False
751000601,,Løgten/Grenåvej (Aarhus Kom),,56.275749212444,10.31530639793,0,,0,,True,False
751000901,,Højbjerg Torv/Oddervej (Aarhus Kom),,56.117316889921,10.206957233622,0,,0,,True,False
751000902,,Højbjerg Torv/Oddervej (Aarhus Kom),,56.116801728902,10.207262781108,0,,0,,True,False
751000903,,Højbjerg Torv/Rosenvangs Allé (Aarhus Kom),,56.116541670919,10.206289616038,0,,0,,True,False
751000904,,Højbjerg Torv/Rosenvangs Allé (Aarhus Kom),,56.116452314174,10.206238569133,0,,0,,True,False
751002301,,Byagervænget/Byagervej (Aarhus Kom),,56.054045486146,10.212864627956,0,,0,,True,False
751002401,,Damgårds Allé/Beder Landevej (Aarhus Kom),,56.058610427017,10.203661258508,0,,0,,True,False
751002402,,Beder Landevej/Damgårds Allé (Aarhus Kom),,56.059322422601,10.20344254234,0,,0,,True,False
751100402,,Lisbjerg/Elevvej (Aarhus Kom),,56.221995677057,10.164007119397,0,,0,,True,False
751100501,,Skødstrup Kirke/Grenåvej (Aarhus Kom),,56.262490335464,10.307327856689,0,,0,,True,False
751100502,,Skødstrup Kirke/Grenåvej (Aarhus Kom),,56.261886020398,10.306693745866,0,,0,,True,False
751100801,,Silkeborgvej/Vestre Ringgade (Aarhus Kom),,56.155391839322,10.1824392088,0,,0,,True,False
751100802,,Silkeborgvej/Vestre Ringgade (Aarhus Kom),,56.156778628197,10.183061423566,0,,0,,True,False
751100803,,Vestre Ringgade/Silkeborgvej (Aarhus Kom),,56.156351713522,10.181663680101,0,,0,,True,False
751100804,,Vestre Ringgade/Silkeborgvej (Aarhus Kom),,56.156116254573,10.180915844647,0,,0,,True,False
751101201,,Borum/Langelinie (Aarhus Kom),,56.187082477857,10.013566929225,0,,0,,True,False
751101301,,Ajstrup Gl. Skole/Ajstrup Strandvej (Aarhus Kom),,56.039338671338,10.238824180476,0,,0,,True,False
751101302,,Ajstrup Gl. Skole/Ajstrup Strandvej (Aarhus Kom),,56.039411339181,10.238746250507,0,,0,,True,False
751101502,,Havvænget/Ajstrup Strandvej (Aarhus Kom),,56.039201171488,10.270024095727,0,,0,,True,False
751101801,,Malling Kirke (Aarhus Kom),,56.040665673733,10.193535493829,0,,0,,True,False
751101802,,Malling Kirke (Aarhus Kom),,56.039693964395,10.193666014522,0,,0,,True,False
751101809,,Malling Kirke (Aarhus Kom),,56.039409126649,10.194315334721,0,,0,,True,False
751103201,,Alstrup Allé/Hovedvejen (Aarhus Kom),,56.105076652739,10.094328168803,0,,0,,True,False
751103202,,Alstrup Allé/Hovedvejen (Aarhus Kom),,56.105020620705,10.09558071334,0,,0,,True,False
751200101,,Egå Havvej/Grenåvej (Aarhus Kom),,56.212969402197,10.279149751887,0,,0,,True,False
751200102,,Egå Havvej/Grenåvej (Aarhus Kom),,56.212157682595,10.27770382014,0,,0,,True,False
751200201,,Spørring/Gammel Landevej (Aarhus Kom),,56.297572615735,10.148415049669,0,,0,,True,False
751200202,,Spørring/Gammel Landevej (Aarhus Kom),,56.297548064246,10.148155760958,0,,0,,True,False
751200401,,Marienlund/Marienlunds Allé (Aarhus Kom),,56.176774048679,10.218841987533,0,,0,,True,False
751200402,,Marienlund/Marienlunds Allé (Aarhus Kom),,56.17718064934,10.218613235959,0,,0,,True,False
751201001,,Sabro Korsvej/Viborgvej (Aarhus Kom),,56.211231900776,10.020459693183,0,,0,,True,False
751201002,,Sabro Korsvej/Viborgvej (Aarhus Kom),,56.210678533919,10.022186245472,0,,0,,True,False
751201801,,Viborgvej/Hasle Ringvej (Aarhus Kom),,56.171600723882,10.155926540523,0,,0,,True,False
751201802,,Hasle Ringvej/Viborgvej (Aarhus Kom),,56.170638900014,10.156928438812,0,,0,,True,False
751201803,,Viborgvej/Åby Ringvej (Aarhus Kom),,56.170919381191,10.155761112815,0,,0,,True,False
751201804,,Hasle Ringvej/Viborgvej (Aarhus Kom),,56.171229809597,10.157155591863,0,,0,,True,False
751202201,,Bogenhøjvej/Randersvej (Aarhus Kom),,56.298930878581,10.143397678945,0,,0,,True,False
751300201,,Skæring Havvej/Grenåvej (Aarhus Kom),,56.230893201334,10.294910845865,0,,0,,True,False
751300202,,Skæring Havvej/Grenåvej (Aarhus Kom),,56.230187268928,10.293677170382,0,,0,,True,False
751300501,,Tage-Hansens Gade/Viborgvej (Aarhus Kom),,56.160398308152,10.185088817058,0,,0,,True,False
751301001,,Aarhus Universitet/Randersvej,,56.172277409859,10.204573683936,0,,0,,True,False
751301002,,Aarhus Universitet/Randersvej,,56.171227374582,10.204444167794,0,,0,,True,False
751453401,,Spiræavej/Lilleringvej (Aarhus Kom),,56.149373770788,9.994481113239,0,,0,,True,False
751475702,,Brunbakkevej/Oddervej (Aarhus Kom),,56.099667976002,10.208929024422,0,,0,,True,False
751002302,,Byagervænget/Byagervej (Aarhus Kom),,56.054088980402,10.213010512341,0,,0,,True,False
751300101,,Skovlundvej/Grenåvej (Aarhus Kom),,56.245359870211,10.300902121123,0,,0,,True,False
751300102,,Skovlundvej/Grenåvej (Aarhus Kom),,56.244605193066,10.30003737755,0,,0,,True,False
751002601,,Beder Landevej/Byagervej (Aarhus Kom),,56.055869492224,10.202772955829,0,,0,,True,False
8603010,,Nørgaardsvej St.,,55.770542637397,12.513019302435,0,,0,,False,True
703001701,,Skovby/Smedeskovvej (Skanderborg Kom),,56.160567896535,9.939541836257,0,,0,,True,False
713001402,,Nørregade/Rylevej (Favrskov Kom),,56.270306379155,10.065582551681,0,,0,,True,False
745001601,,Ladegårdsbakken/Højvangen (Skanderborg Kom),,56.048833225783,9.944658920797,0,,0,,True,False
745001602,,Ladegårdsbakken/Højvangen (Skanderborg Kom),,56.048527413006,9.944699611537,0,,0,,True,False
100240000,,"København, Bernstorffsgade ",,55.673899714631,12.565109253773,0,,0,,False,True
713000302,,Alfa/Århusvej (Favrskov Kom),,56.232074894158,10.103463179796,0,,0,,True,False
713100201,,Beta/Århusvej (Favrskov Kom),,56.230493856598,10.109450796516,0,,0,,True,False
733001901,,Banevej/Tingvej (Syddjurs Kom),,56.319926820094,10.312265177591,0,,0,,True,False
745200301,,Fruering/Vestermøllevej (Skanderborg Kom),,56.034699394862,9.991594456535,0,,0,,True,False
745200302,,Fruering/Vestermøllevej (Skanderborg Kom),,56.034762924467,9.991515839348,0,,0,,True,False
751003401,,Stillingvej/Framlev Korsvej (Aarhus Kom),,56.151905739387,10.00802056933,0,,0,,True,False
751101401,,Rugvænget/Fløjstrupvej (Aarhus Kom),,56.041641803501,10.195732713572,0,,0,,True,False
751101402,,Rugvænget/Fløjstrupvej (Aarhus Kom),,56.041333464619,10.19509713531,0,,0,,True,False
751101601,,Ajstrupvej/Bredgade (Aarhus Kom),,56.038385249628,10.19333669251,0,,0,,True,False
2,,Engelsborgvej (Buddingevej),,55.767248497366,12.498017540594,0,,0,,False,True
3,,Christian X's Allé (Buddingevej),,55.763789734277,12.496336005281,0,,0,,False,True
6,,Gammelmosevej (Buddingevej),,55.756214190547,12.494924016763,0,,0,,False,True
8,,Snogegårdsvej (Buddingevej),,55.750183505185,12.495149424084,0,,0,,False,True
9,,Buddinge St. (Buddingevej),,55.746492067187,12.49469150089,0,,0,,False,True
11,,Buddinge Torv (Gladsaxe Ringvej),,55.742158460549,12.492470767123,0,,0,,False,True
12,,Gladsaxevej (Gladsaxe Ringvej),,55.739925959867,12.484971575276,0,,0,,False,True
15,,Dynamovej (Gladsaxe Ringvej),,55.734963344782,12.459844307403,0,,0,,False,True
17,,Herlev Hospital (Herlev Ringvej),,55.731348429882,12.447398272116,0,,0,,False,True
19,,Herlev Bymidte (Herlev Ringvej),,55.722099084311,12.440895330322,0,,0,,False,True
20,,Hyrdindestien (Herlev Hovedgade),,55.72210362367,12.443938433323,0,,0,,False,True
21,,Elverhøjen (Stationsalleen),,55.719943161947,12.448511023979,0,,0,,False,True
22,,Herlev St.,,55.71909639051,12.444406243692,0,,0,,False,True
23,,Elverhøjen (Herlev Hovedgade),,55.720552128548,12.448278009735,0,,0,,False,True
24,,Herlev Bymidte (Herlev Ringvej),,55.722081146024,12.440893751245,0,,0,,False,True
25,,Mileparken (Herlev Ringvej),,55.715671712781,12.437637866336,0,,0,,False,True
26,,HF Islegård (Nordre Ringvej),,55.712162639806,12.433873365843,0,,0,,False,True
27,,Marielundvej (Nordre Ringvej),,55.709606657887,12.431069042602,0,,0,,False,True
29,,Slotsherrensvej (Nordre Ringvej),,55.703539344936,12.424247352563,0,,0,,False,True
30,,Ejby Industrivej (Nordre Ringvej),,55.699915959263,12.418118955696,0,,0,,False,True
31,,Ejby Smedevej (Nordre Ringvej),,55.694927906363,12.410615115771,0,,0,,False,True
32,,Fabriksparken (Nordre Ringvej),,55.683863777384,12.398160754959,0,,0,,False,True
33,,Mellemtoftevej (Nordre Ringvej),,55.674265929089,12.39506853387,0,,0,,False,True
34,,Psykiatrisk Center Glostrup (Nordre Ringvej),,55.672742043612,12.394252294279,0,,0,,False,True
35,,"Rigshospitalet, Glostrup (Nordre Ringvej)",,55.669824720057,12.391804056314,0,,0,,False,True
36,,Nordre Ringvej (Hovedvejen),,55.665432508253,12.390342071889,0,,0,,False,True
38,,Glostrup St.,,55.663521287748,12.398320663572,0,,0,,False,True
41,,Park Allé (Søndre Ringvej),,55.653500064867,12.395257143833,0,,0,,False,True
42,,Knudslundvej (Søndre Ringvej),,55.650280424982,12.398206117593,0,,0,,False,True
43,,Vallensbækvej (Søndre Ringvej),,55.643751974172,12.401153732693,0,,0,,False,True
47,,Vejlegårdsvej (Søndre Ringvej),,55.61899743722,12.37976733836,0,,0,,False,True
48,,Strandparkstien (Ishøj Strandvej),,55.614307780097,12.370165414819,0,,0,,False,True
49,,Ishøj St.,,55.613375578102,12.358600005263,0,,0,,False,True
50,,Strandparkstien (Ishøj Strandvej),,55.614134047648,12.36994397853,0,,0,,False,True
51,,Vejlegårdsvej (Søndre Ringvej),,55.619672376355,12.380397450451,0,,0,,False,True
55,,Vallensbækvej (Søndre Ringvej),,55.643718903983,12.401373439028,0,,0,,False,True
56,,Knudslundvej (Søndre Ringvej),,55.650809898666,12.39791810035,0,,0,,False,True
61,,Skolevej (Hovedvejen),,55.665730260974,12.394853650886,0,,0,,False,True
62,,Nordre Ringvej (Hovedvejen),,55.665555644368,12.390766312107,0,,0,,False,True
63,,"Rigshospitalet, Glostrup (Nordre Ringvej)",,55.670096822279,12.392368522808,0,,0,,False,True
64,,Psykiatrisk Center Glostrup (Nordre Ringvej),,55.671922546522,12.393974443798,0,,0,,False,True
65,,Mellemtoftevej (Nordre Ringvej),,55.675157798973,12.395655009797,0,,0,,False,True
66,,Fabriksparken (Nordre Ringvej),,55.684447142519,12.398847987335,0,,0,,False,True
67,,Ejby Smedevej (Nordre Ringvej),,55.695574559688,12.411610724396,0,,0,,False,True
68,,Ejby Industrivej (Nordre Ringvej),,55.700395343976,12.419307180855,0,,0,,False,True
69,,Slotsherrensvej (Nordre Ringvej),,55.703525498364,12.424421290117,0,,0,,False,True
72,,HF Islegård (Nordre Ringvej),,55.713134725595,12.435121380121,0,,0,,False,True
73,,Mileparken (Herlev Ringvej),,55.716675563236,12.438713676204,0,,0,,False,True
75,,Hyrdindestien (Herlev Hovedgade),,55.722432655845,12.443107175096,0,,0,,False,True
76,,Herlev Bymidte (Herlev Ringvej),,55.723697930767,12.441593667254,0,,0,,False,True
78,,Herlev Hospital (Herlev Ringvej),,55.730321733247,12.445857721412,0,,0,,False,True
80,,Dynamovej (Gladsaxe Ringvej),,55.735041834572,12.460568368114,0,,0,,False,True
83,,Gladsaxevej (Gladsaxe Ringvej),,55.740399891946,12.487595835641,0,,0,,False,True
84,,Buddinge Torv (Buddingevej),,55.743545102739,12.493981496475,0,,0,,False,True
85,,Buddinge St. (Buddingevej),,55.746771818541,12.494971588592,0,,0,,False,True
86,,Snogegårdsvej (Buddingevej),,55.751069131174,12.495308415193,0,,0,,False,True
88,,Gammelmosevej (Buddingevej),,55.75756708753,12.495092980808,0,,0,,False,True
90,,Nybrovej (Buddingevej),,55.762786705772,12.495879357441,0,,0,,False,True
91,,Christian X's Allé (Buddingevej),,55.765066707824,12.496960759516,0,,0,,False,True
96,,Juni Allé (Mørkhøjvej),,55.727670622031,12.47419140358,0,,0,,False,True
97,,Nørre Gymnasium (Mørkhøjvej),,55.717501542863,12.470054130689,0,,0,,False,True
99,,Husum St. (Islevhusvej),,55.709263324049,12.463765161964,0,,0,,False,True
100,,Fortvej (Tårnvej),,55.695250624714,12.448594998974,0,,0,,False,True
101,,Tæbyvej (Tårnvej),,55.685462572322,12.451027085759,0,,0,,False,True
102,,Rødovre Rådhus (Tårnvej),,55.681606532046,12.452899190739,0,,0,,False,True
103,,Rødovre St.,,55.665306255458,12.459559049528,0,,0,,False,True
104,,Hvidovre Hospital. Kollegiet (Avedøre Havnevej),,55.644902241346,12.461240059972,0,,0,,False,True
105,,Brostykkevej (Avedøre Havnevej),,55.634561038041,12.467321051294,0,,0,,False,True
106,,Gammel Køge Landevej (Avedøre Havnevej),,55.62469448481,12.47313905682,0,,0,,False,True
109,,Røde Mellemvej (Vejlands Allé),,55.642431973442,12.59208903031,0,,0,,False,True
110,,Vejlands Allé (Englandsvej),,55.643019465297,12.59842302768,0,,0,,False,True
112,,Englandsvej (Vejlands Allé),,55.642531579307,12.597583294258,0,,0,,False,True
113,,Røde Mellemvej (Vejlands Allé),,55.642477185174,12.590853058618,0,,0,,False,True
116,,Gammel Køge Landevej (Avedøre Havnevej),,55.625621451084,12.472792058252,0,,0,,False,True
117,,Brostykkevej (Avedøre Havnevej),,55.635505479089,12.466991278403,0,,0,,False,True
118,,"Hvidovre Hospital, Kollegiet (Avedøre Havnevej)",,55.645716174824,12.461073435737,0,,0,,False,True
120,,Rødovre Rådhus (Tårnvej),,55.681172469173,12.453306491737,0,,0,,False,True
121,,Tæbyvej (Tårnvej),,55.686112815041,12.45092525896,0,,0,,False,True
122,,Fortvej (Tårnvej),,55.696092828015,12.448701069682,0,,0,,False,True
123,,Husum St. (Islevhusvej),,55.709394716457,12.464206783725,0,,0,,False,True
125,,Nørre Gymnasium (Mørkhøjvej),,55.717945942065,12.470236936204,0,,0,,False,True
126,,Juni Allé (Mørkhøjvej),,55.727328037043,12.473906024424,0,,0,,False,True
130,,Lyngby Kirke (Lyngby Hovedgade),,55.772800318188,12.500397595543,0,,0,,False,True
131,,Lyngby Mølle (Lyngby Hovedgade),,55.774531492737,12.498335583475,0,,0,,False,True
132,,Sorgenfri Slot (Kongevejen),,55.779314560003,12.49361141035,0,,0,,False,True
133,,Æblevænget (Kongevejen),,55.782164889414,12.491712787263,0,,0,,False,True
134,,Kongevejen (Skovbrynet),,55.783570796947,12.489700590277,0,,0,,False,True
140,,Gl. Kaplevej (Virumvej),,55.788562021336,12.46935431211,0,,0,,False,True
141,,Kongestien (Virumvej),,55.788600823936,12.465432164063,0,,0,,False,True
142,,Virum Stationsvej (Virumvej),,55.788868653625,12.461673967351,0,,0,,False,True
143,,Solgården (Virumvej),,55.788791057825,12.457406357348,0,,0,,False,True
145,,Parcelvej (Furesø Parkvej),,55.791636862141,12.456605441217,0,,0,,False,True
146,,Virum Overdrevsvej (Furesø Parkvej),,55.791403875535,12.451462011842,0,,0,,False,True
147,,Furesø Parken (Furesøvej),,55.791235377312,12.447537214529,0,,0,,False,True
148,,Søndervej (Furesøvej),,55.79288099885,12.445927213074,0,,0,,False,True
149,,Furesøvej (Højdevej),,55.79504988746,12.443932388195,0,,0,,False,True
150,,Arnevej (Højdevej),,55.796145124745,12.449439828005,0,,0,,False,True
151,,Parcelvej (Højdevej),,55.796939157016,12.453819579096,0,,0,,False,True
152,,Kildevældsvej (Parcelvej),,55.799704220162,12.453011105422,0,,0,,False,True
153,,Vejlemosevej (Parcelvej),,55.8018082437,12.451728928578,0,,0,,False,True
154,,Tesch Allé (Dronninggårds Allé),,55.807945023542,12.449318950437,0,,0,,False,True
155,,Mosevej (Dronninggårds Allé),,55.809630210681,12.457818503444,0,,0,,False,True
156,,Piils Skov (Dronninggårds Allé),,55.810862915239,12.463212930187,0,,0,,False,True
159,,Vejlesøparken (Grønnevej),,55.802504580957,12.468504265114,0,,0,,False,True
160,,Parkvej (Grønnevej),,55.798713285715,12.470624990309,0,,0,,False,True
161,,Virum Torv (Grønnevej),,55.794725161054,12.472073413386,0,,0,,False,True
162,,Vangeledet (Grønnevej),,55.792053278015,12.472761078109,0,,0,,False,True
163,,Virumvej (Grønnevej),,55.789200666089,12.473480429531,0,,0,,False,True
164,,Sorgenfrivænget (Grønnevej),,55.786023139262,12.47614936875,0,,0,,False,True
165,,Løvgårdsvej (Grønnevej),,55.784181226327,12.47737334769,0,,0,,False,True
166,,Sorgenfri Torv (Grønnevej),,55.781413369849,12.480812125589,0,,0,,False,True
168,,Kongevejen (Skovbrynet),,55.783514348284,12.48947215794,0,,0,,False,True
169,,Skovbrynet (Kongevejen),,55.78309914075,12.491110344988,0,,0,,False,True
170,,Æblevænget (Kongevejen),,55.781514091993,12.492149124396,0,,0,,False,True
171,,Sorgenfri Slot (Kongevejen),,55.778966510609,12.493835497993,0,,0,,False,True
172,,Lyngby Mølle (Lyngby Hovedgade),,55.775078767486,12.497746567759,0,,0,,False,True
173,,Sorgenfrivej (Jernbanevej),,55.771248415541,12.499955291669,0,,0,,False,True
175,,Sorgenfri Torv (Grønnevej),,55.781620153517,12.480495527423,0,,0,,False,True
176,,Løvgårdsvej (Grønnevej),,55.784190195034,12.477374147447,0,,0,,False,True
177,,Sorgenfrivænget (Grønnevej),,55.786497621678,12.475904443364,0,,0,,False,True
178,,Virumvej (Grønnevej),,55.789336547717,12.473444660901,0,,0,,False,True
179,,Vangeledet (Grønnevej),,55.791681958741,12.472855673649,0,,0,,False,True
180,,Virum Torv (Grønnevej),,55.796042729314,12.471584264886,0,,0,,False,True
181,,Parkvej (Grønnevej),,55.799169370874,12.470394248661,0,,0,,False,True
182,,Vejlesøparken (Grønnevej),,55.803459361999,12.467807020978,0,,0,,False,True
185,,Piils Skov (Dronninggårds Allé),,55.810911777511,12.463712246257,0,,0,,False,True
186,,Mosevej (Dronninggårds Allé),,55.809606441974,12.457704629921,0,,0,,False,True
187,,Tesch Allé (Dronninggårds Allé),,55.807880873503,12.449041857451,0,,0,,False,True
188,,Vejlemosevej (Parcelvej),,55.801358474795,12.452056238215,0,,0,,False,True
189,,Kildevældsvej (Parcelvej),,55.799128883351,12.453327257905,0,,0,,False,True
191,,Arnevej (Højdevej),,55.796168454596,12.449569578287,0,,0,,False,True
192,,Furesøvej (Højdevej),,55.79502565879,12.44383448635,0,,0,,False,True
193,,Søndervej (Furesøvej),,55.792853198578,12.445956674411,0,,0,,False,True
194,,Furesø Parken (Furesøvej),,55.79144479173,12.447444021465,0,,0,,False,True
195,,Virum Overdrevsvej (Furesø Parkvej),,55.791436699315,12.452853332805,0,,0,,False,True
198,,Solgården (Virumvej),,55.788791057825,12.457406357348,0,,0,,False,True
199,,Virum Stationsvej (Virumvej),,55.78886551293,12.461785393106,0,,0,,False,True
200,,Kongestien (Virumvej),,55.788594953785,12.466277401196,0,,0,,False,True
206,,Værebroparken,,55.757277756467,12.438797513393,0,,0,,False,True
207,,Granvej (Vadstrupvej),,55.758211773438,12.447171265473,0,,0,,False,True
208,,Grushøj (Krogshøjvej),,55.759634741225,12.452527141913,0,,0,,False,True
210,,Smørmosevej (Krogshøjvej),,55.753296617837,12.456335073616,0,,0,,False,True
211,,Vibevænget (Krogshøjvej),,55.751175453013,12.455987880012,0,,0,,False,True
212,,Snogebakken (Krogshøjvej),,55.748837672074,12.455350555937,0,,0,,False,True
213,,Løvfrøvej (Krogshøjvej),,55.746669849123,12.454744289923,0,,0,,False,True
214,,HF 4. Juli 1917 (Klausdalsbrovej),,55.745965910106,12.457391853069,0,,0,,False,True
215,,Egegården (Klausdalsbrovej),,55.744852824717,12.467207866457,0,,0,,False,True
216,,Gladsaxe Skole (Gladsaxe Møllevej),,55.744268620607,12.472288554225,0,,0,,False,True
217,,Gladsaxe Kirke (Gladsaxe Møllevej),,55.740829910813,12.472747894415,0,,0,,False,True
219,,Sydmarken (Gladsaxe Møllevej),,55.734089453723,12.476132610583,0,,0,,False,True
220,,Mørkhøj (Mørkhøjvej),,55.730717978228,12.476756853419,0,,0,,False,True
223,,Mellemvangen (Hareskovvej),,55.709004010899,12.509272666305,0,,0,,False,True
225,,Bellahøj (Borups Allé),,55.705484047481,12.516329658821,0,,0,,False,True
226,,Hulgårdsvej (Borups Allé),,55.701397151613,12.519942868726,0,,0,,False,True
227,,Mågevej (Borups Allé),,55.698053921462,12.52395666809,0,,0,,False,True
228,,Jagtvej (Ågade),,55.68735568815,12.541997963219,0,,0,,False,True
230,,Vester Farimagsgade (Gyldenløvesgade),,55.679791008693,12.563195009543,0,,0,,False,True
235,,Jagtvej (Ågade),,55.688304831371,12.540890074439,0,,0,,False,True
236,,Hillerødgade (Borups Allé),,55.697262246562,12.525222702345,0,,0,,False,True
237,,Mågevej (Borups Allé),,55.698950314236,12.523113970957,0,,0,,False,True
238,,Hulgårdsvej (Borups Allé),,55.702735249719,12.519060136635,0,,0,,False,True
239,,Bellahøj (Borups Allé),,55.706292891146,12.516657171561,0,,0,,False,True
241,,Mellemvangen (Hareskovvej),,55.709453582747,12.508644133727,0,,0,,False,True
244,,Mørkhøj (Mørkhøjvej),,55.730443060342,12.476939534291,0,,0,,False,True
245,,Sydmarken (Gladsaxe Møllevej),,55.734324443303,12.476089775949,0,,0,,False,True
247,,Gladsaxe Kirke (Gladsaxe Møllevej),,55.740996747485,12.472571468179,0,,0,,False,True
248,,Gladsaxe Skole (Klausdalsbrovej),,55.744627949188,12.47071058584,0,,0,,False,True
249,,Egegården (Klausdalsbrovej),,55.745014314224,12.465947012423,0,,0,,False,True
250,,HF 4. Juli 1917 (Klausdalsbrovej),,55.745883891404,12.459026431578,0,,0,,False,True
251,,Løvfrøvej (Krogshøjvej),,55.747008880009,12.454838045216,0,,0,,False,True
252,,Snogebakken (Krogshøjvej),,55.749025125116,12.455399026301,0,,0,,False,True
253,,Vibevænget (Krogshøjvej),,55.750684846557,12.455848803209,0,,0,,False,True
254,,Smørmosevej (Krogshøjvej),,55.753269263194,12.45634859516,0,,0,,False,True
256,,Bagsværd Torv (Vadstrupvej),,55.760526248686,12.452478430154,0,,0,,False,True
257,,Granvej (Vadstrupvej),,55.758563458127,12.448095260117,0,,0,,False,True
258,,Husum Torv (Frederikssundsvej),,55.712098115375,12.471629115572,0,,0,,False,True
260,,Herlev Bymidte (Herlev Hovedgade),,55.723063835658,12.439196013067,0,,0,,False,True
261,,Herlevvænge (Herlev Bygade),,55.724408208472,12.434534919435,0,,0,,False,True
262,,Herlev Bygade (Herlevgårdsvej),,55.725651158157,12.437989822143,0,,0,,False,True
263,,Vindebyvej (Herlevgårdsvej),,55.727903690423,12.437821528962,0,,0,,False,True
264,,Smaragdvej (Hjortespringvej),,55.731575177186,12.435786278508,0,,0,,False,True
265,,Borgerdiget (Hjortespringvej),,55.734489736374,12.434130328094,0,,0,,False,True
266,,Køllegårdsvej (Hjortespringvej),,55.73734541462,12.43200680714,0,,0,,False,True
267,,Persillehaven (Hjortespringvej),,55.740321129185,12.429447268813,0,,0,,False,True
268,,Havnsøvej (Sennepshaven),,55.743879604719,12.42952063219,0,,0,,False,True
269,,Peberhaven (Sennepshaven),,55.744378006181,12.433883977696,0,,0,,False,True
270,,Ingefærhaven (Klausdalsbrovej),,55.745090234573,12.438632880973,0,,0,,False,True
271,,HF Klausdalsbro (Klausdalsbrovej),,55.745951855141,12.445100733158,0,,0,,False,True
272,,HF Smørmose (Klausdalsbrovej),,55.746118411094,12.450694504201,0,,0,,False,True
273,,HF Smørmose (Klausdalsbrovej),,55.746137535979,12.449054349005,0,,0,,False,True
274,,HF Klausdalsbro (Klausdalsbrovej),,55.745869215431,12.444200797405,0,,0,,False,True
275,,Ingefærhaven (Klausdalsbrovej),,55.745003984252,12.437860180945,0,,0,,False,True
276,,Peberhaven (Sennepshaven),,55.744324044437,12.433241657185,0,,0,,False,True
277,,Havnsøvej (Sennepshaven),,55.743710179478,12.42818280812,0,,0,,False,True
278,,Persillehaven (Hjortespringvej),,55.740339956108,12.429417046224,0,,0,,False,True
279,,Køllegårdsvej (Hjortespringvej),,55.73723467224,12.432108633849,0,,0,,False,True
280,,Borgerdiget (Hjortespringvej),,55.733455755014,12.434772456965,0,,0,,False,True
281,,Smaragdvej (Hjortespringvej),,55.730651933624,12.436326520808,0,,0,,False,True
282,,Vindebyvej (Herlevgårdsvej),,55.727784864985,12.437890739451,0,,0,,False,True
283,,Herlev Bygade (Herlevgårdsvej),,55.725570880929,12.437966828754,0,,0,,False,True
284,,Herlevvænge (Herlev Bygade),,55.724274115279,12.434507205108,0,,0,,False,True
285,,Herlev Bymidte (Herlev Hovedgade),,55.722969183509,12.439044308386,0,,0,,False,True
286,,Lyngby St.,,55.76825495671,12.504344064212,0,,0,,False,True
288,,Kildebakken (Solnavej),,55.744113809738,12.502735460684,0,,0,,False,True
289,,Kildebakke St.,,55.744275607766,12.506830567002,0,,0,,False,True
290,,Kildebakkegårds Allé (Hagavej),,55.742403011074,12.506598672278,0,,0,,False,True
291,,Christianehøj (Hagavej),,55.74030449907,12.506091512048,0,,0,,False,True
292,,Vandtårnsvej (Søborg Hovedgade),,55.738701294121,12.506186675997,0,,0,,False,True
293,,Søborg Torv (Søborg Hovedgade),,55.736759428486,12.507749494504,0,,0,,False,True
297,,Gladsaxevej (Mars Allé),,55.729667504087,12.507351844255,0,,0,,False,True
298,,Nordtoftevej (Mars Allé),,55.725316191251,12.506387776279,0,,0,,False,True
299,,Mars Allé (Grønnemose Allé),,55.723792223418,12.50685645007,0,,0,,False,True
300,,Søborg Magle Kirke (Maglegårds Allé),,55.722673239046,12.510770670824,0,,0,,False,True
301,,Moseskrænten (Maglegårds Allé),,55.720503017,12.512455508501,0,,0,,False,True
302,,Mosesvinget (Horsebakken),,55.717096106186,12.512738767134,0,,0,,False,True
303,,Lærkebakken (Horsebakken),,55.714970707072,12.51222924621,0,,0,,False,True
304,,Hyrdevangen (Horsebakken),,55.71291972494,12.512889145552,0,,0,,False,True
305,,Utterslev Torv (Utterslevvej),,55.710561510934,12.515798810352,0,,0,,False,True
307,,Utterslev Torv (Horsebakken),,55.7108451315,12.515314671163,0,,0,,False,True
308,,Hyrdevangen (Horsebakken),,55.713201841512,12.512771147483,0,,0,,False,True
309,,Lærkebakken (Horsebakken),,55.714907018115,12.512255380566,0,,0,,False,True
310,,Mosesvinget (Horsebakken),,55.716838295034,12.512635958604,0,,0,,False,True
311,,Moseskrænten (Maglegårds Allé),,55.720715204903,12.512267482198,0,,0,,False,True
312,,Søborg Magle Kirke (Maglegårds Allé),,55.723192418414,12.509909224301,0,,0,,False,True
313,,Mars Allé (Grønnemose Allé),,55.723802100259,12.506825473326,0,,0,,False,True
314,,Nordtoftevej (Mars Allé),,55.726004042149,12.506545085061,0,,0,,False,True
315,,Mars Allé (Gladsaxevej),,55.729978558466,12.507794048282,0,,0,,False,True
317,,Søborg Parkallé,,55.735390891727,12.504981205773,0,,0,,False,True
319,,Søborg Torv (Søborg Hovedgade),,55.737566807365,12.50844353992,0,,0,,False,True
320,,Søborg Hovedgade (Hagavej),,55.739532413966,12.505735327879,0,,0,,False,True
321,,Christianehøj (Hagavej),,55.741116090424,12.506323749288,0,,0,,False,True
322,,Kildebakkegårds Allé (Hagavej),,55.742752782132,12.50663007576,0,,0,,False,True
323,,Kildebakke St.,,55.744304784552,12.506753487672,0,,0,,False,True
324,,Kildebakken (Solnavej),,55.743982109863,12.502309216836,0,,0,,False,True
327,,Gladsaxe Ringvej (Gladsaxevej),,55.738371358611,12.486522235811,0,,0,,False,True
328,,Vandtårnsvej (Gladsaxevej),,55.735394078201,12.486878036465,0,,0,,False,True
329,,Gyngemosevej (Gladsaxevej),,55.731948214146,12.489167872166,0,,0,,False,True
330,,Isbanevej (Gladsaxevej),,55.731388304752,12.49399382349,0,,0,,False,True
331,,Høje Gladsaxe (Gladsaxevej),,55.730909658071,12.497854928572,0,,0,,False,True
332,,Dalen (Gladsaxevej),,55.730395296635,12.503592973054,0,,0,,False,True
333,,Lauggårds Allé (Gladsaxevej),,55.72912626195,12.516210191163,0,,0,,False,True
334,,Engkrogen (Gladsaxevej),,55.728829926135,12.519019706012,0,,0,,False,True
335,,Gladsaxevej (Frederiksborgvej),,55.726879324658,12.525264985194,0,,0,,False,True
336,,Emdrup Torv (Frederiksborgvej),,55.7225698959,12.5294166551,0,,0,,False,True
337,,Bispebjerg Parkalle (Frederiksborgvej),,55.719928329945,12.531535787222,0,,0,,False,True
338,,Bispebjerg Torv (Tagensvej),,55.715924002062,12.531954551829,0,,0,,False,True
339,,Tagensvej (Tuborgvej),,55.713110714359,12.534726597332,0,,0,,False,True
340,,Tuborgvej (Frederiksborgvej),,55.711442702361,12.532075333575,0,,0,,False,True
341,,Landsdommervej (Frederiksborgvej),,55.70923998286,12.532067482645,0,,0,,False,True
342,,Bispevej (Frederiksborgvej),,55.707063710253,12.532077951228,0,,0,,False,True
348,,Peblinge Dossering (Åboulevard),,55.682468460127,12.557072746235,0,,0,,False,True
351,,Peblinge Dossering (Åboulevard),,55.682461092865,12.55732671584,0,,0,,False,True
352,,Borups Plads,,55.691492227666,12.538870308249,0,,0,,False,True
354,,Hillerødgade (Lundtoftegade),,55.697312288497,12.538473343222,0,,0,,False,True
356,,Frederikssundsvej (Frederiksborgvej),,55.702474981427,12.533431022665,0,,0,,False,True
357,,Bispevej (Frederiksborgvej),,55.707117977364,12.532066927588,0,,0,,False,True
358,,Landsdommervej (Frederiksborgvej),,55.709051191368,12.532066356154,0,,0,,False,True
359,,Frederiksborgvej (Tuborgvej),,55.711973120256,12.533015148838,0,,0,,False,True
360,,Tuborgvej (Tagensvej),,55.714421366803,12.534176122331,0,,0,,False,True
361,,Bispebjerg Torv (Tagensvej),,55.716047907436,12.531710890324,0,,0,,False,True
362,,Bispebjerg Parkalle (Frederiksborgvej),,55.720145855383,12.531475789141,0,,0,,False,True
363,,Emdrup Torv (Frederiksborgvej),,55.723509170508,12.528959803485,0,,0,,False,True
364,,Søborg Hovedgade (Gladsaxevej),,55.727602914058,12.52386441179,0,,0,,False,True
365,,Engkrogen (Gladsaxevej),,55.728818678891,12.519098361145,0,,0,,False,True
366,,Lauggårds Allé (Gladsaxevej),,55.729237029988,12.515168531035,0,,0,,False,True
367,,Mars Allé (Gladsaxevej),,55.730078016209,12.506831000222,0,,0,,False,True
368,,Dalen (Gladsaxevej),,55.730368737401,12.503893340243,0,,0,,False,True
369,,Høje Gladsaxe (Gladsaxevej),,55.731061853975,12.497247112164,0,,0,,False,True
370,,Isbanevej (Gladsaxevej),,55.73153702236,12.492875769057,0,,0,,False,True
371,,Gyngemosevej (Gladsaxevej),,55.733379542451,12.487526879721,0,,0,,False,True
372,,Vandtårnsvej (Gladsaxevej),,55.736858296451,12.486610310267,0,,0,,False,True
373,,Engelsborgskolen (Engelsborgvej),,55.766203159792,12.493362496519,0,,0,,False,True
374,,Nybrovej (Bagsværdvej),,55.765663399321,12.4870464252,0,,0,,False,True
375,,Bagsværdvej (Stengårds Allé),,55.764928361351,12.485066966939,0,,0,,False,True
376,,Enighedsvej (Stengårds Allé),,55.762744070863,12.484728387193,0,,0,,False,True
377,,Stenkrogen (Stengårds Allé),,55.759682653806,12.484247765103,0,,0,,False,True
378,,Gammelmosevej (Stengårds Allé),,55.755974584445,12.4837414091,0,,0,,False,True
382,,Stavnsbjerg Allé (Mørkhøjvej),,55.722322234199,12.471597229847,0,,0,,False,True
387,,Tårnvej (Slotsherrensvej),,55.701537313896,12.451410128362,0,,0,,False,True
388,,Guldsmedevej (Slotsherrensvej),,55.70250572432,12.445747575835,0,,0,,False,True
389,,Madumvej (Slotsherrensvej),,55.703908851633,12.439963758552,0,,0,,False,True
390,,Islevgård Allé (Slotsherrensvej),,55.704572900628,12.435197427521,0,,0,,False,True
391,,Slotsherrensvej (Islevdalvej),,55.703514643055,12.431888094336,0,,0,,False,True
392,,Krondalvej (Islevdalvej),,55.700431604241,12.432174879045,0,,0,,False,True
396,,HF Dano (Jyllingevej),,55.691573023004,12.440916810182,0,,0,,False,True
397,,Jyllingevej (Tårnvej),,55.690507459859,12.449402665308,0,,0,,False,True
398,,Grøndalslund Kirke (Tårnvej),,55.688463024444,12.449843228792,0,,0,,False,True
399,,Egegårdsvej (Tårnvej),,55.683448678709,12.451979481636,0,,0,,False,True
400,,Rødovre Centrum (Tårnvej),,55.679463034407,12.453983189384,0,,0,,False,True
401,,Rødager Allé (Tårnvej),,55.675184912455,12.455196948326,0,,0,,False,True
402,,Valhøjs Allé (Tårnvej),,55.673055263726,12.455788655851,0,,0,,False,True
403,,Roskildevej (Avedøre Havnevej),,55.669912107038,12.456290859107,0,,0,,False,True
405,,Park Allé (Avedøre Havnevej),,55.657397015197,12.45434392258,0,,0,,False,True
407,,Oppegårdsvej (Kettegård Allé),,55.647002419181,12.464557792816,0,,0,,False,True
409,,Hvidovre Hospital (Kettegård Allé),,55.647986614621,12.47203845783,0,,0,,False,True
410,,Arnold Nielsens Boulevard (Kettegård Allé),,55.648421391104,12.475416093382,0,,0,,False,True
411,,Arnold Nielsens Boulevard (Kettegård Allé),,55.648154408194,12.477220977265,0,,0,,False,True
412,,Høvedstensvej (Hvidovrevej),,55.645402180648,12.478201092439,0,,0,,False,True
413,,Hvidovre Rådhus (Hvidovrevej),,55.642634775495,12.478448411173,0,,0,,False,True
414,,Brostykkevej (Hvidovrevej),,55.638680256196,12.479337525713,0,,0,,False,True
415,,Antvorskovvej (Hvidovrevej),,55.636263950678,12.47988612267,0,,0,,False,True
416,,Catherine Booths Vej (Hvidovrevej),,55.634010884075,12.480385566319,0,,0,,False,True
417,,Paris Boulevard (Hvidovrevej),,55.630533954634,12.481237249589,0,,0,,False,True
418,,Friheden St.,,55.628671787675,12.482851952274,0,,0,,False,True
419,,Paris Boulevard (Hvidovrevej),,55.631484695669,12.481003761911,0,,0,,False,True
420,,Catherine Booths Vej (Hvidovrevej),,55.633603681456,12.48047658574,0,,0,,False,True
421,,Brostykkevej (Hvidovrevej),,55.636942470908,12.479739689385,0,,0,,False,True
422,,Strøbyvej (Hvidovrevej),,55.639955224719,12.479085030158,0,,0,,False,True
423,,Hvidovre Rådhus (Hvidovrevej),,55.642580512004,12.47845949484,0,,0,,False,True
424,,Høvedstensvej (Hvidovrevej),,55.645149701224,12.478226388242,0,,0,,False,True
425,,Arnold Nielsens Boulevard (Kettegård Allé),,55.648154408194,12.477220977265,0,,0,,False,True
426,,Hvidovre Hospital (Kettegård Allé),,55.647712700193,12.469963058746,0,,0,,False,True
428,,Oppegårdsvej (Kettegård Allé),,55.647047267138,12.464879756129,0,,0,,False,True
429,,"Hvidovre Hospital, Kollegiet (Kettegård Allé)",,55.646311328074,12.462922644976,0,,0,,False,True
430,,Park Allé (Avedøre Havnevej),,55.658473755504,12.454422945118,0,,0,,False,True
431,,Rødovre St.,,55.665008038068,12.459612247932,0,,0,,False,True
432,,Roskildevej (Tårnvej),,55.671627436809,12.456362695364,0,,0,,False,True
433,,Valhøjs Allé (Tårnvej),,55.673738255281,12.455801197105,0,,0,,False,True
434,,Rødager Allé (Tårnvej),,55.676527566092,12.455092661698,0,,0,,False,True
435,,Rødovre Centrum (Tårnvej),,55.679594440923,12.454106174384,0,,0,,False,True
436,,Egegårdsvej (Tårnvej),,55.683288160386,12.45225178978,0,,0,,False,True
437,,Grøndalslund Kirke (Tårnvej),,55.688602957249,12.449982897614,0,,0,,False,True
438,,Tårnvej (Jyllingevej),,55.691771987939,12.448559043798,0,,0,,False,True
439,,HF Dano (Jyllingevej),,55.691714565546,12.440037848568,0,,0,,False,True
440,,Jyllingevej (Islevdalvej),,55.693156970207,12.43284211764,0,,0,,False,True
441,,Hvidsværmervej (Islevdalvej),,55.695951218249,12.432593758756,0,,0,,False,True
443,,Krondalvej (Islevdalvej),,55.700296620993,12.432178958013,0,,0,,False,True
444,,Islevdalvej (Slotsherrensvej),,55.70436866185,12.432536255841,0,,0,,False,True
445,,Islevgård Allé (Slotsherrensvej),,55.704359535127,12.437678617603,0,,0,,False,True
446,,Madumvej (Slotsherrensvej),,55.703365088669,12.441078297959,0,,0,,False,True
447,,Guldsmedevej (Slotsherrensvej),,55.70244378608,12.445391827313,0,,0,,False,True
448,,Slotsherrensvej (Tårnvej),,55.701865684075,12.452521809691,0,,0,,False,True
452,,Husum Torv (Frederikssundsvej),,55.712088696959,12.471644205855,0,,0,,False,True
454,,"Stavnsbjerg Allé, Rosenlund (Mørkhøjvej)",,55.722161694029,12.471551110133,0,,0,,False,True
460,,Gammelmosevej (Stengårds Allé),,55.756629749958,12.483783933093,0,,0,,False,True
461,,Stenkrogen (Stengårds Allé),,55.759360232825,12.484203038208,0,,0,,False,True
462,,Enighedsvej (Stengårds Allé),,55.763119851884,12.484793835483,0,,0,,False,True
463,,Bagsværdvej (Stengårds Allé),,55.76479428298,12.485039045036,0,,0,,False,True
464,,Nybrovej (Engelsborgvej),,55.765659885391,12.488752596575,0,,0,,False,True
465,,Christian X's Allé,,55.765550108892,12.495457076765,0,,0,,False,True
468,,Høstvej (Toftebæksvej),,55.774842003423,12.505733396083,0,,0,,False,True
470,,Lyngby Svømmehal (Lundtoftevej),,55.780070282415,12.509362324148,0,,0,,False,True
471,,Elektrovej (Lundtoftevej),,55.78315553787,12.511522744072,0,,0,,False,True
472,,Lyngby Handelsskole U/NORD (Anker Engelunds Vej),,55.786420632564,12.515566708302,0,,0,,False,True
473,,DTU (Anker Engelunds Vej),,55.785955218744,12.520200135506,0,,0,,False,True
474,,"Rævehøjvej, DTU (Lundtoftegårdsvej)",,55.787352453731,12.527283782008,0,,0,,False,True
476,,Prof. Ostenfeld Kollegiet (Eremitageparken),,55.788748742095,12.533761461177,0,,0,,False,True
477,,Eremitageparken,,55.792858322807,12.534995824601,0,,0,,False,True
479,,Nærum St. (Helsingørmotorvejen),,55.814432185475,12.529256614255,0,,0,,False,True
480,,Malmbergsvej (Langhaven),,55.833978979842,12.525836388113,0,,0,,False,True
486,,Gøngehusvej (Langhaven),,55.845763950884,12.533137177146,0,,0,,False,True
489,,Malmbergsvej (Langhaven),,55.833978979842,12.525836388113,0,,0,,False,True
490,,Nærum St. (Helsingørmotorvejen),,55.813500135741,12.528836829945,0,,0,,False,True
492,,HF Lundtoftegård (Lundtoftevej),,55.797684569061,12.531634625681,0,,0,,False,True
493,,Eremitageparken,,55.793616294533,12.535527407393,0,,0,,False,True
494,,Prof. Ostenfeld Kollegiet (Eremitageparken),,55.789207034193,12.533771083286,0,,0,,False,True
496,,"Rævehøjvej, DTU (Lundtoftegårdsvej)",,55.787317037981,12.52726462052,0,,0,,False,True
497,,DTU (Anker Engelunds Vej),,55.785954762519,12.520216051291,0,,0,,False,True
498,,Lyngby Handelsskole U/NORD (Lundtoftevej),,55.785470242166,12.513901305084,0,,0,,False,True
499,,Elektrovej (Lundtoftevej),,55.783428096467,12.511738757804,0,,0,,False,True
500,,Lyngby Svømmehal (Lundtoftevej),,55.780052800389,12.509344796622,0,,0,,False,True
505,,Søborg Hovedgade (Vangedevej),,55.728334183396,12.525013829144,0,,0,,False,True
506,,Plantevej (Vangedevej),,55.730618693293,12.524678153953,0,,0,,False,True
507,,Dyssegårdsvej (Vangedevej),,55.732125078268,12.524511280736,0,,0,,False,True
508,,Aftenbakken (Vangedevej),,55.734055256842,12.524302948205,0,,0,,False,True
509,,Brødrevej (Vangedevej),,55.736770244121,12.524006029112,0,,0,,False,True
510,,Vangede St.,,55.739441163793,12.523051644755,0,,0,,False,True
512,,Ericavej 33 (Ericavej),,55.741273621997,12.519981374931,0,,0,,False,True
513,,Ericaparken (Ericavej),,55.742208225827,12.51592144946,0,,0,,False,True
514,,Ericavej (Fennevangen),,55.744615652805,12.510033158496,0,,0,,False,True
515,,Mosegårdsvej (Fennevangen),,55.747483905027,12.508776562937,0,,0,,False,True
516,,Snogegårdsvej (Sognevej),,55.749927044565,12.509809158588,0,,0,,False,True
519,,Brogårdsvej (Nybrovej),,55.752987504488,12.519427149198,0,,0,,False,True
520,,Lyngbyvej (Brogårdsvej),,55.752670556622,12.522013287684,0,,0,,False,True
521,,Tjørnegårdsskolen (Brogårdsvej),,55.754590143699,12.529999113841,0,,0,,False,True
522,,Ermelundsvej (Brogårdsvej),,55.754041499735,12.535003748675,0,,0,,False,True
524,,Jahnsensvej (Gentoftegade),,55.751279996461,12.542214990747,0,,0,,False,True
525,,Kirketorvet (Gentoftegade),,55.749779271633,12.541249841858,0,,0,,False,True
526,,Adolphsvej (Gentoftegade),,55.748186611414,12.540977867088,0,,0,,False,True
527,,Wilhelm Smidts Vej (Adolphsvej),,55.747658174773,12.544644303721,0,,0,,False,True
528,,Kildeskovshallen (Adolphsvej),,55.747761995613,12.551939003923,0,,0,,False,True
529,,Bernstorffsvej (Adolphsvej),,55.747324021361,12.556506223549,0,,0,,False,True
530,,Gentofte Rådhus (Bernstorffsvej),,55.749983794215,12.557497792708,0,,0,,False,True
531,,Carl Baggers Allé (L.E. Bruuns Vej),,55.749633316131,12.563380476547,0,,0,,False,True
532,,Rådhusvej (L.E. Bruuns Vej),,55.749246411299,12.568032184794,0,,0,,False,True
534,,Fredens Plads (Fredensvej),,55.756908530319,12.575716629383,0,,0,,False,True
535,,Ejgårdsvej (Fredensvej),,55.758693085216,12.574955237367,0,,0,,False,True
536,,Herthavej (Ordrupvej),,55.762146482595,12.575861638643,0,,0,,False,True
540,,Bloksbjerget (Klampenborgvej),,55.772020348344,12.580148391083,0,,0,,False,True
541,,Dyrehaven (Christiansholmsvej),,55.774361775563,12.584032387584,0,,0,,False,True
542,,Klampenborg St. (Dyrehavevej),,55.776944600403,12.587651902065,0,,0,,False,True
543,,Dyrehaven (Dyrehavevej),,55.775056289082,12.584574788522,0,,0,,False,True
544,,Bloksbjerget (Klampenborgvej),,55.7712052113,12.579116507422,0,,0,,False,True
547,,Ordrup Torv (Ordrupvej),,55.763720856708,12.579227446101,0,,0,,False,True
548,,Herthavej (Ordrupvej),,55.762806581157,12.577277691063,0,,0,,False,True
549,,Ordrup Gymnasium (Fredensvej),,55.760903165064,12.574711161078,0,,0,,False,True
551,,Ejgårdsvej (Fredensvej),,55.7585732616,12.575055885218,0,,0,,False,True
552,,Fredens Plads (Fredensvej),,55.756380819929,12.575620452989,0,,0,,False,True
553,,Charlottenlund St. (Rådhusvej),,55.751923427279,12.571210416057,0,,0,,False,True
554,,Rådhusvej (L.E. Bruuns Vej),,55.749289491281,12.567478142092,0,,0,,False,True
555,,Carl Baggers Allé (L.E. Bruuns Vej),,55.749618808657,12.563570461064,0,,0,,False,True
556,,Gentofte Rådhus (Bernstorffsvej),,55.749194611377,12.557425888507,0,,0,,False,True
557,,Bernstorffsvej (Adolphsvej),,55.747404303076,12.555907761421,0,,0,,False,True
558,,Kildeskovshallen (Adolphsvej),,55.747815811171,12.551322178167,0,,0,,False,True
559,,Wilhelm Smidts Vej (Adolphsvej),,55.748002027981,12.546747926373,0,,0,,False,True
560,,Adolphsvej (Gentoftegade),,55.748321592358,12.540974166071,0,,0,,False,True
561,,Kirketorvet (Gentoftegade),,55.749851016784,12.541256348914,0,,0,,False,True
562,,Jahnsensvej (Gentoftegade),,55.751121782213,12.542089036598,0,,0,,False,True
564,,Ermelundsvej (Brogårdsvej),,55.754195175211,12.53372619498,0,,0,,False,True
565,,Tjørnegårdsskolen (Brogårdsvej),,55.754627845965,12.529938746185,0,,0,,False,True
566,,Lyngbyvej (Brogårdsvej),,55.752737897617,12.521859928796,0,,0,,False,True
567,,Brogårdsvej (Nybrovej),,55.752436787514,12.519505050508,0,,0,,False,True
570,,Snogegårdsvej (Sognevej),,55.7492397811,12.509316951134,0,,0,,False,True
571,,Mosegårdsvej (Fennevangen),,55.74733904603,12.508811369986,0,,0,,False,True
572,,Ericavej (Fennevangen),,55.744587383375,12.510078437661,0,,0,,False,True
573,,Ericaparken (Ericavej),,55.742286804362,12.515689436966,0,,0,,False,True
574,,Ericavej 33 (Ericavej),,55.741272710079,12.520013170131,0,,0,,False,True
575,,Vangede St.,,55.739738328937,12.523349395041,0,,0,,False,True
576,,Brødrevej (Vangedevej),,55.736598932945,12.524022448887,0,,0,,False,True
577,,Aftenbakken (Vangedevej),,55.734316707867,12.52427872576,0,,0,,False,True
578,,Dyssegårdsvej (Vangedevej),,55.732368592704,12.52448544233,0,,0,,False,True
579,,Plantevej (Vangedevej),,55.730492223623,12.524698614307,0,,0,,False,True
583,,Ordrup Jagtvej (Hyldegårdsvej),,55.759884735772,12.584967277201,0,,0,,False,True
584,,Teglvænget (Teglgårdsvej),,55.76112373457,12.589339000344,0,,0,,False,True
585,,Skovshoved Skole (Teglgårdsvej),,55.762541115264,12.594062342596,0,,0,,False,True
586,,"Skovshoved, Strandvejen (Teglgårdsvej)",,55.763066832038,12.596375387805,0,,0,,False,True
587,,Skovshoved Skole (Teglgårdsvej),,55.762312714162,12.592956859944,0,,0,,False,True
588,,Teglvænget (Teglgårdsvej),,55.761049070944,12.589124819678,0,,0,,False,True
589,,Ordrup Jagtvej (Teglgårdsvej),,55.760016888855,12.585984062591,0,,0,,False,True
593,,Lyngby Lokal St. (Kanalvej),,55.773162611296,12.506922416493,0,,0,,False,True
595,,Carlshøjvej (Sorgenfrigårdsvej),,55.777728297959,12.511081985562,0,,0,,False,True
597,,Nørregade (Sorgenfrigårdsvej),,55.778843054081,12.506683310667,0,,0,,False,True
598,,Margrethevej (Caroline Amalie Vej),,55.781770993124,12.502702505021,0,,0,,False,True
599,,Agnesvej (Caroline Amalie Vej),,55.785710075887,12.502673375255,0,,0,,False,True
600,,Borrebakken (Caroline Amalie Vej),,55.789946134262,12.502319849902,0,,0,,False,True
601,,Lystoftebakken (Caroline Amalie Vej),,55.79175117837,12.504604590615,0,,0,,False,True
602,,Brede Torv (Lystoftevej),,55.793711849222,12.505530983841,0,,0,,False,True
603,,Finlandsvej (Kulsviervej),,55.793910751908,12.512730944672,0,,0,,False,True
604,,Kulsviervej (Nøjsomhedsvej),,55.797724329031,12.514575047613,0,,0,,False,True
605,,Lundtofte Skole (Nøjsomhedsvej),,55.797031046286,12.521200400431,0,,0,,False,True
606,,Nøjsomhedsvej (Lundtoftevej),,55.795417776459,12.522586904071,0,,0,,False,True
607,,Lundtofte Kirke (Lundtoftevej),,55.792941970028,12.520815071805,0,,0,,False,True
608,,Danmarksvej (Lundtoftevej),,55.789596970239,12.518310720848,0,,0,,False,True
609,,Bøgeparken (Lundtoftevej),,55.787036258345,12.515733916778,0,,0,,False,True
612,,Sti til Bauneporten (Lundtoftegårdsvej),,55.777755082051,12.523017685689,0,,0,,False,True
613,,Bauneporten (Lyngbygårdsvej),,55.77550422771,12.521554131383,0,,0,,False,True
614,,Sorgenfrigårdsvej (Klampenborgvej),,55.774428123852,12.514549666506,0,,0,,False,True
615,,Firskovvej (Klampenborgvej),,55.772650295408,12.509747623994,0,,0,,False,True
617,,Anker Engelunds Vej (Lundtoftegårdsvej),,55.783483264995,12.52581687555,0,,0,,False,True
619,,Firskovvej (Klampenborgvej),,55.773071293305,12.511061630488,0,,0,,False,True
620,,Sorgenfrigårdsvej (Lyngbygårdsvej),,55.775401005993,12.516057103818,0,,0,,False,True
621,,Bauneporten (Lyngbygårdsvej),,55.775488131729,12.520547658667,0,,0,,False,True
622,,Sti til Bauneporten (Lundtoftegårdsvej),,55.778424800049,12.523492979869,0,,0,,False,True
625,,Bøgeparken (Lundtoftevej),,55.787588504137,12.516230525684,0,,0,,False,True
626,,Danmarksvej (Lundtoftevej),,55.790116067658,12.518708657085,0,,0,,False,True
627,,Lundtofte Kirke (Lundtoftevej),,55.793303280355,12.521071145041,0,,0,,False,True
628,,Nøjsomhedsvej (Lundtoftevej),,55.796219275633,12.523170097704,0,,0,,False,True
629,,Lundtofte Skole (Nøjsomhedsvej),,55.797054459629,12.52101097731,0,,0,,False,True
630,,Kulsviervej (Nøjsomhedsvej),,55.797640137236,12.515317656983,0,,0,,False,True
631,,Finlandsvej (Kulsviervej),,55.793776681884,12.512702903021,0,,0,,False,True
632,,Brede Torv (Lystoftevej),,55.793668488539,12.505160003567,0,,0,,False,True
633,,Borrebakken (Caroline Amalie Vej),,55.789874386578,12.502313404627,0,,0,,False,True
634,,Agnesvej (Caroline Amalie Vej),,55.785135640256,12.502637732608,0,,0,,False,True
635,,Margrethevej (Caroline Amalie Vej),,55.781392955621,12.502716417002,0,,0,,False,True
636,,Nørregade (Sorgenfrigårdsvej),,55.779159815595,12.50377623648,0,,0,,False,True
639,,Høstvej (Toftebæksvej),,55.775276460015,12.505947918579,0,,0,,False,True
640,,Lyngby Lokal St. (Kanalvej),,55.77324822757,12.50581349514,0,,0,,False,True
641,,Anker Engelunds Vej (Lundtoftegårdsvej),,55.783652290793,12.525880026287,0,,0,,False,True
645,,Værløse St. (Kollekollevej),,55.781482061284,12.37331641711,0,,0,,False,True
647,,Bavnestedet (Fiskebækvej),,55.790001942503,12.374101360701,0,,0,,False,True
651,,Farum Midtpunkt (Frederiksborgvej),,55.819169672547,12.375701522323,0,,0,,False,True
653,,Gammelgårdsvej (Ryttergårdsvej),,55.814729394673,12.369759911433,0,,0,,False,True
655,,Bavnestedet (Fiskebækvej),,55.789474694893,12.373656797592,0,,0,,False,True
657,,Værløse St. (Kollekollevej),,55.781253672363,12.373775288486,0,,0,,False,True
658,,Højlunds Vænge (Kollekollevej),,55.77941100487,12.386171253735,0,,0,,False,True
663,,Tycho Brahes Allé (Amagerbrogade),,55.654982350877,12.610225020232,0,,0,,False,True
664,,Øresundsvej (Amagerbrogade),,55.657932877717,12.608047487877,0,,0,,False,True
667,,Sønderport (Amagerbrogade),,55.666042734472,12.598899418818,0,,0,,False,True
668,,Christmas Møllers Plads (Amagerbrogade),,55.668061952684,12.596889481571,0,,0,,False,True
670,,Knippelsbro (Torvegade),,55.673990893834,12.588491725287,0,,0,,False,True
671,,Børsen (Børsgade),,55.676234017016,12.582507320932,0,,0,,False,True
672,,"Gammel Strand St., Christiansborg (Vindebrogade)",,55.677129681729,12.580472859581,0,,0,,False,True
673,,"Stormbroen, Nationalmuseet (Vindebrogade)",,55.675821893026,12.576295607092,0,,0,,False,True
676,,Vester Farimagsgade (Gyldenløvesgade),,55.68016746087,12.56292690782,0,,0,,False,True
678,,Forum St. (Rosenørns Allé),,55.681908826165,12.552804495285,0,,0,,False,True
679,,H.C. Ørsteds Vej (Rosenørns Allé),,55.682687855646,12.549501223329,0,,0,,False,True
682,,Falkoner Allé (Godthåbsvej),,55.685458154732,12.537958639774,0,,0,,False,True
685,,Ndr. Fasanvej (Godthåbsvej),,55.688120680665,12.526372935954,0,,0,,False,True
686,,Tesdorpfsvej (Godthåbsvej),,55.688831215723,12.523237576492,0,,0,,False,True
687,,C.F. Richs Vej (Godthåbsvej),,55.689582558362,12.519930684384,0,,0,,False,True
688,,Grøndal St. (Godthåbsvej),,55.691026612659,12.51566715759,0,,0,,False,True
689,,Rønnebærvej (Godthåbsvej),,55.692727125832,12.513432113189,0,,0,,False,True
690,,Hulgårdsvej (Godthåbsvej),,55.695354471136,12.508971668597,0,,0,,False,True
691,,Rødkildevej (Primulavej),,55.696069577768,12.506918420304,0,,0,,False,True
692,,Bellahøjvej (Annebergvej),,55.696428447797,12.502540663921,0,,0,,False,True
693,,Fuglsang Allé (Annebergvej),,55.697839731957,12.50097940075,0,,0,,False,True
695,,Valløvej (Brønshøjvej),,55.702139893388,12.497749834811,0,,0,,False,True
698,,Valløvej (Brønshøjvej),,55.701119644656,12.497897440353,0,,0,,False,True
700,,Fuglsang Allé (Annebergvej),,55.697839731957,12.50097940075,0,,0,,False,True
701,,Bellahøjvej (Primulavej),,55.695968826347,12.503836806697,0,,0,,False,True
702,,Rødkildevej (Godthåbsvej),,55.695514658873,12.508715395713,0,,0,,False,True
703,,Hulgårdsvej (Godthåbsvej),,55.694317949895,12.510629854309,0,,0,,False,True
704,,Rønnebærvej (Godthåbsvej),,55.692976680161,12.512881438571,0,,0,,False,True
705,,Grøndal St. (Godthåbsvej),,55.690603914161,12.51629773843,0,,0,,False,True
706,,C.F. Richs Vej (Godthåbsvej),,55.689375845649,12.520867143288,0,,0,,False,True
707,,Tesdorpfsvej (Godthåbsvej),,55.688470333083,12.524844557151,0,,0,,False,True
708,,Ndr. Fasanvej (Godthåbsvej),,55.687679789782,12.528259152291,0,,0,,False,True
711,,Falkoner Allé (Rolighedsvej),,55.685160513786,12.539236841148,0,,0,,False,True
714,,H.C. Ørsteds Vej (Rosenørns Allé),,55.682461606241,12.550483345875,0,,0,,False,True
715,,Forum St. (Rosenørns Allé),,55.681919173936,12.552757690379,0,,0,,False,True
717,,Vester Farimagsgade (Gyldenløvesgade),,55.680144039874,12.562495097234,0,,0,,False,True
718,,Rådhuspladsen St. (Vesterbrogade),,55.67548527683,12.566860753102,0,,0,,False,True
719,,Glyptoteket (Tietgensgade),,55.673083523398,12.571526710547,0,,0,,False,True
720,,"Stormbroen, Nationalmuseet (Vindebrogade)",,55.675986265601,12.576517482886,0,,0,,False,True
722,,Børsen (Børsgade),,55.676002094525,12.583058948721,0,,0,,False,True
725,,Christmas Møllers Plads (Amagerbrogade),,55.668265293978,12.596701334665,0,,0,,False,True
726,,Sønderport (Amagerbrogade),,55.665792688412,12.599146886228,0,,0,,False,True
729,,Øresundsvej (Amagerbrogade),,55.65871696948,12.607069929353,0,,0,,False,True
730,,Tycho Brahes Allé (Amagerbrogade),,55.654936578518,12.610252610999,0,,0,,False,True
738,,Ørestads Boulevard (Amager Boulevard),,55.667566056912,12.588650747441,0,,0,,False,True
740,,Amagerfælled Skole (Sundholmsvej),,55.662480263813,12.59527934767,0,,0,,False,True
741,,Sønderbro Hospital (Sundholmsvej),,55.660547045037,12.598649023875,0,,0,,False,True
742,,Brydes Allé (Sundholmsvej),,55.659134344157,12.60082558637,0,,0,,False,True
744,,Irlandsvej (Englandsvej),,55.65225855395,12.60164091915,0,,0,,False,True
745,,Dyvekeskolen (Englandsvej),,55.648167047205,12.597973356347,0,,0,,False,True
750,,Willumsvej (Amagerbrogade),,55.639622830729,12.617586130584,0,,0,,False,True
751,,Randkløve Allé (Amager Landevej),,55.637635138262,12.618515527466,0,,0,,False,True
752,,Korsvejens Skole (Amager Landevej),,55.634962698871,12.619794925579,0,,0,,False,True
753,,Gammel Kirkevej (Amager Landevej),,55.631884433212,12.621418160171,0,,0,,False,True
754,,Skyttehøj (Amager Landevej),,55.627732514246,12.623466447963,0,,0,,False,True
755,,Maglebo (Amager Landevej),,55.625733939251,12.624457856568,0,,0,,False,True
756,,Løjtegårdsvej (Amager Landevej),,55.622686273091,12.6259560767,0,,0,,False,True
757,,Højskole Allé (Amager Landevej),,55.619556475634,12.627494150934,0,,0,,False,True
758,,Tømmerup Stationsvej (Amager Landevej),,55.615951903134,12.629274072836,0,,0,,False,True
759,,Østbirk Allé (Tømmerupvej),,55.614076283433,12.623984797319,0,,0,,False,True
760,,Høgsbrovej (Tømmerupvej),,55.611168143357,12.61833077203,0,,0,,False,True
761,,Tømmerup (Englandsvej),,55.608849020663,12.615257601493,0,,0,,False,True
762,,Store Magleby (Englandsvej),,55.596151330465,12.634431214229,0,,0,,False,True
763,,Dragør Rådhus (Kirkevej),,55.59611257279,12.638159518577,0,,0,,False,True
764,,Slørvej (Kirkevej),,55.5954896678,12.64851920788,0,,0,,False,True
765,,HF Maglebylund (Kirkevej),,55.595086040423,12.655119577481,0,,0,,False,True
766,,Jægervej (Kirkevej),,55.594660780992,12.662130691052,0,,0,,False,True
768,,Kongevejen (Stationsvej),,55.594635175313,12.670195334396,0,,0,,False,True
769,,F.J. Madsens Vej (Stationsvej),,55.598137284768,12.669156880068,0,,0,,False,True
770,,Nordre Tangvej (Stationsvej),,55.600362261975,12.668125991615,0,,0,,False,True
772,,Nordre Tangvej (Stationsvej),,55.600125322353,12.668230912586,0,,0,,False,True
773,,F.J. Madsens Vej (Stationsvej),,55.598100941893,12.669169365339,0,,0,,False,True
775,,Dragør Stationsplads,,55.595301259418,12.669273011763,0,,0,,False,True
776,,Dragør Kirke (Linde Allé),,55.594623080222,12.669098483955,0,,0,,False,True
777,,Jægervej (Kirkevej),,55.594550613652,12.664010128867,0,,0,,False,True
778,,Dragør Centret (Kirkevej),,55.59475106631,12.660614630795,0,,0,,False,True
779,,HF Maglebylund (Kirkevej),,55.595192765296,12.653350936489,0,,0,,False,True
780,,Slørvej (Kirkevej),,55.595555726559,12.647509010182,0,,0,,False,True
781,,Dragør Rådhus (Kirkevej),,55.596170049444,12.63713261633,0,,0,,False,True
782,,Store Magleby (Englandsvej),,55.596239047606,12.633899398258,0,,0,,False,True
783,,Tømmerup (Tømmerupvej),,55.609454611032,12.615456353098,0,,0,,False,True
784,,Høgsbrovej (Tømmerupvej),,55.611551953536,12.618731547786,0,,0,,False,True
785,,Østbirk Allé (Tømmerupvej),,55.614145333462,12.624690229247,0,,0,,False,True
786,,Tømmerup Stationsvej (Amager Landevej),,55.615878755103,12.629314972411,0,,0,,False,True
787,,Højskole Allé (Amager Landevej),,55.619291726446,12.62762857033,0,,0,,False,True
788,,Løjtegårdsvej (Amager Landevej),,55.623516385363,12.625556062425,0,,0,,False,True
789,,Maglebo (Amager Landevej),,55.626473434458,12.624081195263,0,,0,,False,True
790,,Skyttehøj (Amager Landevej),,55.628216229375,12.623225055961,0,,0,,False,True
791,,Gammel Kirkevej (Amager Landevej),,55.632441290346,12.621135788648,0,,0,,False,True
792,,Korsvejens Skole (Amager Landevej),,55.636125997106,12.619377733818,0,,0,,False,True
793,,Randkløve Allé (Amager Landevej),,55.637879602811,12.618458603411,0,,0,,False,True
794,,Willumsvej (Amagerbrogade),,55.64018817955,12.617320335642,0,,0,,False,True
795,,Vejlands Allé (Amagerbrogade),,55.644286201447,12.615265836057,0,,0,,False,True
796,,Sundbyvester Plads,,55.646146969427,12.612845678274,0,,0,,False,True
798,,Sundbyvestervej (Englandsvej),,55.646555304245,12.598048011459,0,,0,,False,True
799,,Dyvekeskolen (Englandsvej),,55.649004549227,12.598543192088,0,,0,,False,True
801,,Skotlands Plads (Sundholmsvej),,55.657702129781,12.603970416386,0,,0,,False,True
802,,Brydes Allé (Sundholmsvej),,55.659722022789,12.599797996712,0,,0,,False,True
803,,Sønderbro Hospital (Sundholmsvej),,55.661261185519,12.597601167073,0,,0,,False,True
804,,Amagerfælled Skole (Sundholmsvej),,55.662309538708,12.595581817975,0,,0,,False,True
806,,Ørestads Boulevard (Amager Boulevard),,55.667880448965,12.586818178644,0,,0,,False,True
807,,Klaksvigsgade (Langebro),,55.669091572248,12.581376626598,0,,0,,False,True
808,,Stormgade (H.C. Andersens Boulevard),,55.673964232629,12.571543396479,0,,0,,False,True
810,,Søndergade (Møllegade),,55.593565413181,12.634303053563,0,,0,,False,True
811,,Fasanvænget (Møllevej),,55.588426778533,12.63535181283,0,,0,,False,True
812,,Gåsevænget (Møllevej),,55.586597490166,12.63578582997,0,,0,,False,True
813,,Store Magleby Strandvej (Krudttårnsvej),,55.583566729247,12.637616761819,0,,0,,False,True
814,,Mågevænget (Krudttårnsvej),,55.583846562946,12.642722815994,0,,0,,False,True
815,,Søndre Røsevej (Krudttårnsvej),,55.584110127486,12.64746230404,0,,0,,False,True
816,,Hollændervænget (Krudttårnsvej),,55.584331983036,12.65148357995,0,,0,,False,True
817,,Vierdiget (Krudttårnsvej),,55.583703586459,12.657775366697,0,,0,,False,True
819,,Idrætsstien (Søndre Strandvej),,55.587269976793,12.665410864079,0,,0,,False,True
821,,Dragør Skole (Vestgrønningen),,55.593021996682,12.67031452119,0,,0,,False,True
822,,Dragør Skole (Vestgrønningen),,55.593614774439,12.670338163315,0,,0,,False,True
824,,Idrætsstien (Søndre Strandvej),,55.587313390839,12.66546254624,0,,0,,False,True
826,,Vierdiget (Krudttårnsvej),,55.584037773118,12.657123829406,0,,0,,False,True
827,,Hollændervænget (Krudttårnsvej),,55.584348026176,12.651850212817,0,,0,,False,True
828,,Søndre Røsevej (Krudttårnsvej),,55.584051102077,12.646424911476,0,,0,,False,True
829,,Mågevænget (Krudttårnsvej),,55.583763397638,12.641286316258,0,,0,,False,True
830,,Store Magleby Strandvej (Møllevej),,55.584007882255,12.636387569636,0,,0,,False,True
831,,Gåsevænget (Møllevej),,55.586017931976,12.635922705635,0,,0,,False,True
832,,Fasanvænget (Møllevej),,55.588553262999,12.635331764384,0,,0,,False,True
833,,Søndergade (Møllegade),,55.592482738913,12.634425169702,0,,0,,False,True
836,,Sundbyvestervej (Englandsvej),,55.645788390861,12.598136614872,0,,0,,False,True
837,,Vejlands Allé (Englandsvej),,55.642187914988,12.598569280737,0,,0,,False,True
838,,Følfodvej (Englandsvej),,55.637406037359,12.600038015175,0,,0,,False,True
839,,Skalbjergvej (Englandsvej),,55.635103546844,12.600669107956,0,,0,,False,True
840,,Tårnby St. (Englandsvej),,55.630062980636,12.602065917765,0,,0,,False,True
841,,Tårnby Kirke (Englandsvej),,55.627247902659,12.603921134589,0,,0,,False,True
842,,Løjtegårdsvej (Englandsvej),,55.622796050476,12.604560954215,0,,0,,False,True
843,,Brønderslev Allé (Englandsvej),,55.618112859048,12.606339299363,0,,0,,False,True
844,,Ingstrup Allé (Englandsvej),,55.615887457112,12.608931099052,0,,0,,False,True
845,,Hjallerup Allé (Englandsvej),,55.612175698735,12.612831524654,0,,0,,False,True
846,,Tømmerup (Englandsvej),,55.609814464732,12.614536353147,0,,0,,False,True
848,,Ingstrup Allé (Englandsvej),,55.616055410018,12.608724109726,0,,0,,False,True
849,,Brønderslev Allé (Englandsvej),,55.618949442307,12.605717057589,0,,0,,False,True
850,,Løjtegårdsvej (Englandsvej),,55.623849935135,12.60449887689,0,,0,,False,True
851,,Tårnby Kirke (Englandsvej),,55.627778396172,12.603922198986,0,,0,,False,True
852,,Tårnby St. (Englandsvej),,55.6307058609,12.602220328798,0,,0,,False,True
853,,Skalbjergvej (Englandsvej),,55.635806756393,12.600606512023,0,,0,,False,True
854,,Følfodvej (Englandsvej),,55.638429171785,12.599798116197,0,,0,,False,True
859,,Amagerfælled Skole (Amagerfælledvej),,55.66255800061,12.593854845088,0,,0,,False,True
860,,Hørgården (Amagerfælledvej),,55.658271473416,12.59253911746,0,,0,,False,True
865,,Vejlands Allé (Røde Mellemvej),,55.641923783946,12.591327024272,0,,0,,False,True
866,,Gårdfæstevej (Kongelundsvej),,55.640478967063,12.589080225086,0,,0,,False,True
867,,Toskiftevej (Kongelundsvej),,55.637667243532,12.588679768409,0,,0,,False,True
868,,Kanadavej (Kongelundsvej),,55.63463132051,12.588258862103,0,,0,,False,True
871,,Otto Baches Allé (Kongelundsvej),,55.620197379115,12.586175949446,0,,0,,False,True
872,,Pilegård Allé (Kongelundsvej),,55.615776047339,12.585470006359,0,,0,,False,True
873,,Ryumgårdsvej (Kongelundsvej),,55.613710024016,12.585090598441,0,,0,,False,True
874,,Kollundvej (Kongelundsvej),,55.611097418672,12.584645426788,0,,0,,False,True
875,,Oliefabriksvej (Kongelundsvej),,55.607616774506,12.584057521952,0,,0,,False,True
876,,Ugandavej (Kongelundsvej),,55.603017911418,12.583272370841,0,,0,,False,True
877,,Tunisvej (Kongelundsvej),,55.598705086291,12.582545286467,0,,0,,False,True
878,,Alkmaar Allé (Kongelundsvej),,55.59653050282,12.582188094537,0,,0,,False,True
879,,Haarlem Allé (Kongelundsvej),,55.594060900196,12.581772282274,0,,0,,False,True
880,,Nøragersmindevej (Kongelundsvej),,55.591292741546,12.581726258528,0,,0,,False,True
881,,Haarlem Allé (Kongelundsvej),,55.594177483905,12.581782914954,0,,0,,False,True
882,,Alkmaar Allé (Kongelundsvej),,55.596638118459,12.58219791136,0,,0,,False,True
883,,Tunisvej (Kongelundsvej),,55.599402734212,12.582672464987,0,,0,,False,True
884,,Ugandavej (Kongelundsvej),,55.604127156546,12.58346891583,0,,0,,False,True
885,,Oliefabriksvej (Kongelundsvej),,55.609066334922,12.58430107955,0,,0,,False,True
886,,Kollundvej (Kongelundsvej),,55.610864716234,12.584608287371,0,,0,,False,True
887,,Ryumgårdsvej (Kongelundsvej),,55.613531129365,12.585058368694,0,,0,,False,True
888,,Pilegård Allé (Kongelundsvej),,55.616475080464,12.585549767197,0,,0,,False,True
891,,Slusevej (Kongelundsvej),,55.630369117046,12.5876463789,0,,0,,False,True
892,,Kanadavej (Kongelundsvej),,55.635159959669,12.588323132846,0,,0,,False,True
893,,Toskiftevej (Kongelundsvej),,55.63803446091,12.588729276515,0,,0,,False,True
894,,Gårdfæstevej (Kongelundsvej),,55.640120717872,12.589031530598,0,,0,,False,True
899,,Grønjords Kollegiet (Amagerfælledvej),,55.655311977142,12.594112643201,0,,0,,False,True
900,,Hørgården (Amagerfælledvej),,55.659188645517,12.592845902149,0,,0,,False,True
904,,Tordenskjoldsgade (Holbergsgade),,55.677964124474,12.587917024737,0,,0,,False,True
907,,Isafjordsgade (Njalsgade),,55.666370373818,12.579107412203,0,,0,,False,True
910,,Grønjords Kollegiet (Peder Lykkes Vej),,55.654952855711,12.595320213625,0,,0,,False,True
911,,Tingvej (Peder Lykkes Vej),,55.65444691561,12.599997220888,0,,0,,False,True
912,,Sundbyvester Park (Irlandsvej),,55.652564257315,12.602559588388,0,,0,,False,True
913,,Ingolfs Allé (Irlandsvej),,55.650362484171,12.603740673736,0,,0,,False,True
916,,Korsvejens Skole (Saltværksvej),,55.63555804198,12.620644699146,0,,0,,False,True
919,,Skottegårdsskolen (Saltværksvej),,55.637746756565,12.636918905932,0,,0,,False,True
933,,Skottegårdsskolen (Saltværksvej),,55.637509192688,12.635227666249,0,,0,,False,True
937,,Ingolfs Allé (Irlandsvej),,55.650071321746,12.603857018193,0,,0,,False,True
938,,Englandsvej (Peder Lykkes Vej),,55.654008764846,12.602056247894,0,,0,,False,True
939,,Tingvej (Peder Lykkes Vej),,55.654488842114,12.59979432302,0,,0,,False,True
940,,Amagerfælled Skole (Njalsgade),,55.66307972712,12.593234606076,0,,0,,False,True
943,,Isafjordsgade (Njalsgade),,55.6665150822,12.578770646912,0,,0,,False,True
952,,Amager Landevej (Løjtegårdsvej),,55.623005590399,12.624889097156,0,,0,,False,True
953,,Løjtegårdsskolen (Løjtegårdsvej),,55.623064516707,12.620158957509,0,,0,,False,True
954,,Amagerhallen (Løjtegårdsvej),,55.623123945838,12.614491278192,0,,0,,False,True
955,,Plejehjemmet Løjtegårdsvej (Løjtegårdsvej),,55.6231787357,12.609887877239,0,,0,,False,True
962,,Fægårdsvej (Tømmerupvej),,55.588895465281,12.596638606295,0,,0,,False,True
963,,Ullerupstræde (Tømmerupvej),,55.586818882916,12.599068082673,0,,0,,False,True
964,,Maglegård (Tømmerupvej),,55.583154930021,12.600129428057,0,,0,,False,True
965,,"Rågård, Tømmerupvej (Tømmerupvej)",,55.578402948179,12.60088452998,0,,0,,False,True
966,,Møllevangstien (Kalvebodvej),,55.573854906131,12.604181679483,0,,0,,False,True
967,,"Søvang, Kalvebodvej (Fælledvej)",,55.573522819039,12.616054538204,0,,0,,False,True
968,,Kastanievej (Fælledvej),,55.570218815958,12.612227492269,0,,0,,False,True
969,,"Søvang, Rønnevej (Fælledvej)",,55.568905206502,12.607679269515,0,,0,,False,True
970,,Birkelund (Fælledvej),,55.566768545464,12.600231368346,0,,0,,False,True
971,,Skolevej (Fælledvej),,55.565543829298,12.596009458706,0,,0,,False,True
972,,"Rosenlund, Sandagergård (Skydebanevej)",,55.564441292293,12.586388240456,0,,0,,False,True
973,,Skovvej (Kalvebodvej),,55.567736934812,12.583467570989,0,,0,,False,True
974,,Rosenlundsvej (Kalvebodvej),,55.566508040768,12.578753816833,0,,0,,False,True
975,,TAMU-Center (Kalvebodvej),,55.565469706619,12.574898674308,0,,0,,False,True
976,,Kongelundslejren (Kalvebodvej),,55.564311034853,12.570540932363,0,,0,,False,True
977,,Sydvestpynten (Kalvebodvej),,55.563319843957,12.569070518189,0,,0,,False,True
978,,Kongelundslejren (Kalvebodvej),,55.564269886412,12.570410258778,0,,0,,False,True
979,,TAMU-Center (Kalvebodvej),,55.565534519495,12.57514258217,0,,0,,False,True
980,,Rosenlundsvej (Kalvebodvej),,55.566369923743,12.578249336248,0,,0,,False,True
981,,Kalvebodvej (Skydebanevej),,55.567486327976,12.584349230356,0,,0,,False,True
982,,"Rosenlund, Sandagergård (Skydebanevej)",,55.564358726167,12.586444177867,0,,0,,False,True
983,,Skolevej (Fælledvej),,55.565478593669,12.595781343408,0,,0,,False,True
984,,Birkelund (Fælledvej),,55.566850777425,12.600492792291,0,,0,,False,True
985,,"Søvang, Rønnevej (Fælledvej)",,55.568815421497,12.607369515278,0,,0,,False,True
986,,Kastanievej (Fælledvej),,55.570218815958,12.612227492269,0,,0,,False,True
987,,"Søvang, Kalvebodvej (Fælledvej)",,55.573873111071,12.616372450284,0,,0,,False,True
988,,Møllevangstien (Tømmerupvej),,55.573882275423,12.604168318176,0,,0,,False,True
989,,"Rågård, Tømmerupvej (Tømmerupvej)",,55.578194826351,12.600928950346,0,,0,,False,True
990,,Maglegård (Tømmerupvej),,55.583464955649,12.599983211437,0,,0,,False,True
991,,Ullerupstræde (Tømmerupvej),,55.586764145318,12.599094820448,0,,0,,False,True
992,,Fægårdsvej (Tømmerupvej),,55.589031377986,12.596603419185,0,,0,,False,True
998,,Englandsvej (Løjtegårdsvej),,55.62321630655,12.606474727857,0,,0,,False,True
999,,Plejehjemmet Løjtegårdsvej (Løjtegårdsvej),,55.623165848548,12.610935509735,0,,0,,False,True
1000,,Amagerhallen (Løjtegårdsvej),,55.62312534843,12.614443733833,0,,0,,False,True
1001,,Løjtegårdsskolen (Løjtegårdsvej),,55.623066715105,12.619475838474,0,,0,,False,True
1002,,Store Magleby Strandvej (Bachersmindevej),,55.583534379386,12.635375349259,0,,0,,False,True
1003,,Fælledvej (Bachersmindevej),,55.583335581867,12.626006471567,0,,0,,False,True
1004,,Bachersmindelejren (Fælledvej),,55.57990723853,12.621832768922,0,,0,,False,True
1005,,Bachersmindelejren (Fælledvej),,55.580160743355,12.622078369849,0,,0,,False,True
1006,,Fælledvej (Bachersmindevej),,55.583333177326,12.625783997531,0,,0,,False,True
1007,,Kalvebodvej (Skovvej),,55.56842191177,12.583720437614,0,,0,,False,True
1008,,Kongelunden (Skovvej),,55.574300979173,12.579780810384,0,,0,,False,True
1010,,Frieslandsvej (Kongelundsvej),,55.582275843164,12.577967461748,0,,0,,False,True
1011,,Goudavej (Kongelundsvej),,55.585353332484,12.579120900314,0,,0,,False,True
1013,,Oliefabriksvej (Løjtegårdsvej),,55.622428200601,12.59259315496,0,,0,,False,True
1014,,Egensevej (Løjtegårdsvej),,55.623057939454,12.597179772705,0,,0,,False,True
1015,,Præstefælledvej (Løjtegårdsvej),,55.623291641467,12.60085617038,0,,0,,False,True
1017,,Irlandsvej (Tårnbyvej),,55.634369227719,12.611871735985,0,,0,,False,True
1020,,Korsvejens Skole (Tårnbyvej),,55.635291871153,12.618696685543,0,,0,,False,True
1022,,Irlandsvej (Tårnbyvej),,55.633986516141,12.608991176631,0,,0,,False,True
1024,,Englandsvej (Løjtegårdsvej),,55.623260065771,12.603459424471,0,,0,,False,True
1025,,Præstefælledvej (Løjtegårdsvej),,55.62328952311,12.599092055917,0,,0,,False,True
1026,,Egensevej (Løjtegårdsvej),,55.622939577834,12.596310805105,0,,0,,False,True
1027,,Oliefabriksvej (Løjtegårdsvej),,55.622286154611,12.591610813496,0,,0,,False,True
1029,,Goudavej (Kongelundsvej),,55.585495895221,12.579165639912,0,,0,,False,True
1030,,Frieslandsvej (Kongelundsvej),,55.582773889451,12.578155688319,0,,0,,False,True
1032,,Kongelunden (Skovvej),,55.574557637209,12.579613732124,0,,0,,False,True
1034,,Christmas Møllers Plads (Vermlandsgade),,55.668854736595,12.597757777842,0,,0,,False,True
1035,,Uplandsgade (Vermlandsgade),,55.667977996246,12.607397841271,0,,0,,False,True
1046,,Ved Amagerbanen (Prags Boulevard),,55.669283711461,12.620755189895,0,,0,,False,True
1049,,Uplandsgade (Vermlandsgade),,55.668087179757,12.606437424345,0,,0,,False,True
1053,,Gentofte Hospital (Kildegårdsvej),,55.737744110249,12.545449924291,0,,0,,False,True
1058,,Nordmarksvej (Hedegaardsvej),,55.645103362467,12.633546912137,0,,0,,False,True
1059,,Postparken (Kastrupvej),,55.643584483216,12.629272218949,0,,0,,False,True
1060,,Hyben Allé (Kastrupvej),,55.64059941514,12.633511012122,0,,0,,False,True
1061,,Skottegårdsskolen (Kastrupvej),,55.63721665418,12.635995395483,0,,0,,False,True
1064,,Skottegårdsskolen (Kastrupvej),,55.637980262281,12.635716469444,0,,0,,False,True
1065,,Hyben Allé (Kastrupvej),,55.641829132768,12.631764820653,0,,0,,False,True
1074,,Glyptoteket (Tietgensgade),,55.673100997066,12.571544215556,0,,0,,False,True
1077,,Borneovej (Backersvej),,55.645052186154,12.628597205138,0,,0,,False,True
1079,,Nordhavn St. (Østbanegade),,55.705094063903,12.590628478616,0,,0,,False,True
1080,,Århusgade (Strandboulevarden),,55.707187022599,12.586090857479,0,,0,,False,True
1081,,Svendborggade (Strandboulevarden),,55.709261422537,12.582490698394,0,,0,,False,True
1082,,Poul Henningsens Plads St. (Jagtvej),,55.708868354378,12.575622502344,0,,0,,False,True
1083,,Serridslevvej (Jagtvej),,55.707729274305,12.569657827456,0,,0,,False,True
1085,,Vibenshus Runddel St. (Jagtvej),,55.705280782276,12.561090014903,0,,0,,False,True
1086,,Universitetsparken (Jagtvej),,55.702868077092,12.558402239479,0,,0,,False,True
1087,,Tagensvej (Jagtvej),,55.69975995593,12.554887339004,0,,0,,False,True
1088,,Stevnsgade (Jagtvej),,55.696326801014,12.551104700229,0,,0,,False,True
1089,,Nørrebros Runddel St. (Jagtvej),,55.694784943829,12.54938868556,0,,0,,False,True
1090,,Nuuks Plads St. (Jagtvej),,55.688728541052,12.542408729226,0,,0,,False,True
1091,,Ågade (Falkoner Allé),,55.686898849412,12.54038087029,0,,0,,False,True
1092,,Rolighedsvej (Falkoner Allé),,55.685001039294,12.53821972154,0,,0,,False,True
1093,,Helgesvej (Falkoner Allé),,55.683668273563,12.53673053023,0,,0,,False,True
1094,,Frederiksberg St. (Falkoner Allé),,55.681313648868,12.534194299078,0,,0,,False,True
1096,,Frederiksberg Rådhus (Allegade),,55.67795317506,12.533174855598,0,,0,,False,True
1097,,Frederiksberg Runddel (Pile Allé),,55.674260860245,12.53212566568,0,,0,,False,True
1098,,De Små Haver (Pile Allé),,55.670363630749,12.531010483188,0,,0,,False,True
1099,,Kammasvej (Pile Allé),,55.668419494509,12.530453385331,0,,0,,False,True
1100,,Bjerregårdsvej (Valby Langgade),,55.666829365554,12.526030693403,0,,0,,False,True
1101,,Gl. Jernbanevej (Valby Langgade),,55.666545377205,12.519641826814,0,,0,,False,True
1102,,Valby Langgade (Toftegårds Allé),,55.666138805916,12.517203175791,0,,0,,False,True
1106,,Toftegårds Plads (Toftegårds Allé),,55.662190067352,12.516625947752,0,,0,,False,True
1109,,Gl. Jernbanevej (Valby Langgade),,55.66647914438,12.521322145472,0,,0,,False,True
1110,,Bjerregårdsvej (Valby Langgade),,55.667165253295,12.52779496163,0,,0,,False,True
1111,,Kammasvej (Pile Allé),,55.668687174755,12.530525242591,0,,0,,False,True
1112,,De Små Haver (Pile Allé),,55.671630739075,12.531347480543,0,,0,,False,True
1113,,Frederiksberg Runddel (Allegade),,55.675571433938,12.532514395592,0,,0,,False,True
1114,,Frederiksberg Rådhus (Allegade),,55.677997559372,12.533194774048,0,,0,,False,True
1117,,Helgesvej (Falkoner Allé),,55.684059942322,12.537179722269,0,,0,,False,True
1118,,Rolighedsvej (Falkoner Allé),,55.685619005569,12.538928146292,0,,0,,False,True
1119,,Ågade (Falkoner Allé),,55.687264974005,12.540780076604,0,,0,,False,True
1120,,Nuuks Plads St. (Jagtvej),,55.688850427478,12.542547101829,0,,0,,False,True
1121,,Jægersborggade (Jagtvej),,55.691835214741,12.545985134063,0,,0,,False,True
1122,,Nørrebros Runddel St. (Jagtvej),,55.694933266602,12.549545420887,0,,0,,False,True
1123,,Stevnsgade (Jagtvej),,55.697075529437,12.551952783736,0,,0,,False,True
1124,,Tagensvej (Jagtvej),,55.699709132112,12.555089705762,0,,0,,False,True
1125,,Universitetsparken (Jagtvej),,55.703436929039,12.55925016735,0,,0,,False,True
1126,,Vibenshus Runddel St. (Jagtvej),,55.706481822074,12.563699565466,0,,0,,False,True
1128,,Serridslevvej (Jagtvej),,55.70784104719,12.571069462475,0,,0,,False,True
1129,,Poul Henningsens Plads St. (Strandboulevarden),,55.709143534079,12.578211740645,0,,0,,False,True
1130,,Svendborggade (Strandboulevarden),,55.70911173887,12.58422884137,0,,0,,False,True
1132,,Strandboulevarden (Nordre Frihavnsgade),,55.703496983543,12.588666554163,0,,0,,False,True
1133,,Jægersborggade (Jagtvej),,55.691217292752,12.545276482937,0,,0,,False,True
1135,,Kilholmvej (Apollovej),,55.687989825248,12.497344619199,0,,0,,False,True
1137,,Grøndalsvej (C.F. Richs Vej),,55.686912156897,12.503598963979,0,,0,,False,True
1138,,Tesdorpfsvej (Bernhard Bangs Allé),,55.68493903327,12.508769997192,0,,0,,False,True
1144,,Nyelandsvej Skole (Nyelandsvej),,55.682876824812,12.531120612152,0,,0,,False,True
1145,,Frederiksberg St. (Nyelandsvej),,55.682136627336,12.534029881707,0,,0,,False,True
1146,,Dr. Abildgaards Allé (Hostrupsvej),,55.682338259891,12.538886173274,0,,0,,False,True
1147,,Bülowsvej (Thorvaldsensvej),,55.68109519555,12.544566598116,0,,0,,False,True
1148,,H.C. Ørsteds Vej (Danasvej),,55.679712262163,12.549167768664,0,,0,,False,True
1149,,Danas Plads (Danasvej),,55.678633618588,12.553191538275,0,,0,,False,True
1151,,"Vesterport St., Kampmannsgade (Kampmannsgade)",,55.677610947279,12.561787205462,0,,0,,False,True
1152,,"Hovedbanegården, Frihedsstøtten (Vesterbrogade)",,55.674230518438,12.563627767774,0,,0,,False,True
1163,,Vesterport St. (Vester Farimagsgade),,55.676083820962,12.562046088694,0,,0,,False,True
1164,,"Vesterport St., Kampmannsgade (Kampmannsgade)",,55.67762636942,12.561565826469,0,,0,,False,True
1165,,Danas Plads (Danasvej),,55.678704673673,12.55291154627,0,,0,,False,True
1167,,H.C. Ørsteds Vej (Thorvaldsensvej),,55.680334235677,12.547871466385,0,,0,,False,True
1168,,Bülowsvej (Thorvaldsensvej),,55.681400023486,12.543352874442,0,,0,,False,True
1169,,Dr. Abildgaards Allé (Thorvaldsensvej),,55.682390764561,12.539559341686,0,,0,,False,True
1170,,Frederiksberg St. (Nyelandsvej),,55.682106977621,12.534122692817,0,,0,,False,True
1171,,Nyelandsvej Skole (Nyelandsvej),,55.682957255796,12.530825483167,0,,0,,False,True
1176,,Dalgas Have (Bernhard Bangs Allé),,55.684349426856,12.512091212328,0,,0,,False,True
1177,,Tesdorpfsvej (Bernhard Bangs Allé),,55.685003744963,12.508393822043,0,,0,,False,True
1179,,C.F. Richs Vej (Apollovej),,55.687821330239,12.500099078421,0,,0,,False,True
1180,,Kilholmvej (Apollovej),,55.688020891319,12.496885807226,0,,0,,False,True
1183,,Toftegårds Plads (Vigerslev Allé),,55.661626513164,12.518404574623,0,,0,,False,True
1186,,Trekronergade (Carl Jacobsens Vej),,55.652940875311,12.520900672094,0,,0,,False,True
1187,,HF Stien (Carl Jacobsens Vej),,55.652886194937,12.523742342097,0,,0,,False,True
1188,,Sjælør St. (Sjælør Boulevard),,55.651561858365,12.527582907006,0,,0,,False,True
1189,,Ellebjergvej (Borgm. Christiansens Gade),,55.64996225545,12.528488431755,0,,0,,False,True
1192,,Bådehavnsgade (Sjællandsbroen),,55.645627968873,12.542837411139,0,,0,,False,True
1193,,Sluseholmen (Sjællandsbroen),,55.643260857081,12.546025851136,0,,0,,False,True
1194,,Englandsvej (Vejlands Allé),,55.642544191766,12.599603621742,0,,0,,False,True
1195,,Irlandsvej (Vejlands Allé),,55.642918444554,12.607364979138,0,,0,,False,True
1205,,Bremensgade (Holmbladsgade),,55.666803573995,12.614910037697,0,,0,,False,True
1208,,Bremensgade (Holmbladsgade),,55.666646208616,12.614147795991,0,,0,,False,True
1217,,Sundbyvester Plads (Amagerbrogade),,55.646319177508,12.614324407345,0,,0,,False,True
1218,,Vejlands Allé (Amagerbrogade),,55.644240428074,12.615293413896,0,,0,,False,True
1219,,Irlandsvej (Vejlands Allé),,55.642839196086,12.606085754571,0,,0,,False,True
1220,,Artillerivej (Vejlands Allé),,55.641518309588,12.562704514275,0,,0,,False,True
1221,,Sluseholmen (Sjællandsbroen),,55.643935930901,12.545069367803,0,,0,,False,True
1224,,Ellebjergvej (Borgm. Christiansens Gade),,55.649888061747,12.528879290059,0,,0,,False,True
1225,,Sjælør St. (Sjælør Boulevard),,55.652132346294,12.527443429969,0,,0,,False,True
1227,,Trekronergade (Carl Jacobsens Vej),,55.652929316582,12.52067699571,0,,0,,False,True
1231,,Valby Langgade (Søndre Fasanvej),,55.666919975678,12.517241506925,0,,0,,False,True
1232,,Aurikelvej (Søndre Fasanvej),,55.669000347268,12.517126061265,0,,0,,False,True
1233,,Roskildevej (Søndre Fasanvej),,55.671521129954,12.51795704484,0,,0,,False,True
1234,,Mathildevej (Søndre Fasanvej),,55.675764791159,12.519849957953,0,,0,,False,True
1235,,Peter Bangs Vej (Søndre Fasanvej),,55.678775476735,12.521154992821,0,,0,,False,True
1236,,Fasanvej St. (Nordre Fasanvej),,55.68186169302,12.522960384628,0,,0,,False,True
1237,,"Nyelandsvej, Frederiksberg Hospital",,55.684645532514,12.524961662015,0,,0,,False,True
1239,,Godthåbsvej (Nordre Fasanvej),,55.688290717935,12.52796405295,0,,0,,False,True
1240,,Mariendalsvej (Nordre Fasanvej),,55.691652774081,12.53111657731,0,,0,,False,True
1241,,Hillerødgade (Nordre Fasanvej),,55.697620753446,12.535571781015,0,,0,,False,True
1246,,Aldersrogade (Haraldsgade),,55.706209423393,12.553562605956,0,,0,,False,True
1247,,Lersø Parkallé (Haraldsgade),,55.70815747089,12.557083957674,0,,0,,False,True
1248,,Lyngbyvej (Sejrøgade),,55.710081640795,12.561734257172,0,,0,,False,True
1249,,Skt. Kjelds Plads (Nygårdsvej),,55.710782022973,12.56671935049,0,,0,,False,True
1250,,Nygårdsvej (Vennemindevej),,55.712132429891,12.56913603786,0,,0,,False,True
1251,,Kildevældsparken (Vennemindevej),,55.713845391629,12.568671226691,0,,0,,False,True
1254,,Østerbrogade (Kildevældsgade),,55.714720073993,12.576922227269,0,,0,,False,True
1255,,Thomas Laubs Gade (Kildevældsgade),,55.714294420497,12.572088948879,0,,0,,False,True
1258,,Skt. Kjelds Plads (Nygårdsvej),,55.710659121029,12.565688844575,0,,0,,False,True
1260,,Lyngbyvej (Haraldsgade),,55.709805570882,12.560403170333,0,,0,,False,True
1261,,Lersø Parkallé (Haraldsgade),,55.708311526258,12.557352778306,0,,0,,False,True
1262,,Aldersrogade (Haraldsgade),,55.706611136504,12.554283872253,0,,0,,False,True
1268,,Borups Allé (Nordre Fasanvej),,55.69407800753,12.533389062203,0,,0,,False,True
1269,,Mariendalsvej (Nordre Fasanvej),,55.691049043303,12.530536795317,0,,0,,False,True
1270,,Godthåbsvej (Nordre Fasanvej),,55.687407288537,12.527104495165,0,,0,,False,True
1272,,"Nyelandsvej, Frederiksberg Hospital",,55.684741903359,12.525049919304,0,,0,,False,True
1273,,Fasanvej St. (Nordre Fasanvej),,55.681452944904,12.522477998226,0,,0,,False,True
1274,,Peter Bangs Vej (Søndre Fasanvej),,55.678944509799,12.521217935617,0,,0,,False,True
1275,,Mathildevej (Søndre Fasanvej),,55.675897951265,12.519909664751,0,,0,,False,True
1276,,Roskildevej (Søndre Fasanvej),,55.671521129954,12.51795704484,0,,0,,False,True
1277,,Aurikelvej (Søndre Fasanvej),,55.668198509501,12.517181325986,0,,0,,False,True
1290,,Bavnehøj Allé (Enghavevej),,55.658954384666,12.539700252989,0,,0,,False,True
1293,,Enghave Plads St. (Enghavevej),,55.666402738417,12.543634557467,0,,0,,False,True
1295,,Vesterport St. (Hammerichsgade),,55.676026944534,12.563075217478,0,,0,,False,True
1299,,Polititorvet (Bernstorffsgade),,55.668741640797,12.571178467583,0,,0,,False,True
1300,,Tivoli Hotel (Kalvebod Brygge),,55.664373663079,12.563383164921,0,,0,,False,True
1301,,"Fisketorvet, Dybbølsbro (Kalvebod Brygge)",,55.663134182599,12.560550295107,0,,0,,False,True
1302,,Otto Busses Vej (Vasbygade),,55.661163852558,12.557492173456,0,,0,,False,True
1303,,Toldkammeret (Vasbygade),,55.658425369322,12.556734546523,0,,0,,False,True
1304,,H. C. Ørsted Værket (Vasbygade),,55.657366927495,12.554475419734,0,,0,,False,True
1305,,Frederiks Brygge (Vasbygade),,55.656528402499,12.548657876507,0,,0,,False,True
1306,,Vasbygade (Sydhavns Plads),,55.654053323411,12.541277238855,0,,0,,False,True
1314,,Sydhavns Plads (Vasbygade),,55.653505131468,12.539398846799,0,,0,,False,True
1315,,Teglholmsgade (Vasbygade),,55.654438424279,12.54288648309,0,,0,,False,True
1316,,Frederiks Brygge (Vasbygade),,55.65649093552,12.549020282715,0,,0,,False,True
1317,,H. C. Ørsted Værket (Vasbygade),,55.657558008137,12.555637900389,0,,0,,False,True
1318,,Toldkammeret (Vasbygade),,55.658587018311,12.557051420762,0,,0,,False,True
1319,,Otto Busses Vej (Kalvebod Brygge),,55.661683741291,12.558477868877,0,,0,,False,True
1320,,"Fisketorvet, Dybbølsbro (Kalvebod Brygge)",,55.662656109452,12.56060228249,0,,0,,False,True
1321,,Tivoli Hotel (Kalvebod Brygge),,55.665480138441,12.566458638634,0,,0,,False,True
1322,,Polititorvet (Bernstorffsgade),,55.669059217263,12.571080150025,0,,0,,False,True
1328,,Toftegårds Plads (Gammel Køge Landevej),,55.660965931903,12.516357004138,0,,0,,False,True
1332,,Kirsten Walthers Vej (Gammel Køge Landevej),,55.657902327929,12.513759965625,0,,0,,False,True
1336,,Carl Jacobsens Vej (Gammel Køge Landevej),,55.65619607043,12.512430061185,0,,0,,False,True
1337,,Kirsten Walthers Vej (Gammel Køge Landevej),,55.658720485985,12.514390015854,0,,0,,False,True
1340,,Sønderjyllands Allé (Peter Bangs Vej),,55.678515049983,12.499155658909,0,,0,,False,True
1341,,Peter Bangs Vej St. (Peter Bangs Vej),,55.678667682688,12.504516086374,0,,0,,False,True
